[
  {
    "category": {
      "id": 10,
      "name": "Hexagon Dealer"
    },
    "rank": 1,
    "distance": 0,
    "position": {
      "lat": 43.8636808529746,
      "lng": 12.8157234191894
    },
    "name": "Gan Design Lab",
    "address": "Via della Meccanica, 1",
    "city": "Pesaro",
    "zipCode": "61122",
    "province": "PU",
    "id": 8184,
    "contactEmail": "info@gandesignlab.com",
    "country": {
      "id": 114,
      "name": "Italy"
    }
  },
  {
    "category": {
      "id": 10,
      "name": "Hexagon Dealer"
    },
    "rank": 1,
    "distance": 0,
    "position": {
      "lat": 43.4415419,
      "lng": 12.8496113
    },
    "name": "Arredamenti Camilletti",
    "address": "Via Crocefisso 41/A",
    "city": "Sassoferrato",
    "zipCode": "60041",
    "province": "AN",
    "phoneNumber": "+39 0732 959436",
    "id": 319,
    "contactEmail": "info@arredamenticamilletti.it",
    "country": {
      "id": 114,
      "name": "Italy"
    }
  },
  {
    "category": {
      "id": 10,
      "name": "Hexagon Dealer"
    },
    "rank": 1,
    "distance": 0,
    "position": {
      "lat": 43.5289563,
      "lng": 11.7580433000001
    },
    "name": "Studio d'Interni",
    "address": "Via Guglielmo Fracassi, 1",
    "city": "Castiglion Fibocchi",
    "zipCode": "52029",
    "province": "AR",
    "phoneNumber": "+39 0575 47055",
    "id": 572,
    "contactEmail": "info@studiodiinterni.com",
    "country": {
      "id": 114,
      "name": "Italy"
    }
  },
  {
    "category": {
      "id": 10,
      "name": "Hexagon Dealer"
    },
    "rank": 1,
    "distance": 0,
    "position": {
      "lat": 42.5676555,
      "lng": 12.6117991
    },
    "name": "Tomassini Arredamenti",
    "address": "Via Curio Fornaci, 3 - Zona Industriale Maratta",
    "city": "Terni",
    "zipCode": "05100",
    "province": "TR",
    "phoneNumber": "+39 0744 305276",
    "id": 32661,
    "contactEmail": "info@tomassiniarredamenti.it",
    "href": "www.tomassiniarredamenti.it",
    "country": {
      "id": 114,
      "name": "Italy"
    }
  },
  {
    "category": {
      "id": 10,
      "name": "Hexagon Dealer"
    },
    "rank": 1,
    "distance": 0,
    "position": {
      "lat": 43.720196,
      "lng": 10.946885
    },
    "name": "Borgioli Arredamento",
    "address": "Via del Giglio, 40",
    "city": "Empoli",
    "zipCode": "50053",
    "province": "FI",
    "phoneNumber": "+39 0571 711555",
    "id": 323,
    "contactEmail": "info@borgioliarredamento.com",
    "country": {
      "id": 114,
      "name": "Italy"
    }
  },
  {
    "category": {
      "id": 10,
      "name": "Hexagon Dealer"
    },
    "rank": 1,
    "distance": 0,
    "position": {
      "lat": 42.743318,
      "lng": 13.806302
    },
    "name": "di Paolo Arredamenti",
    "address": "Viale Cesare Battisti, 80",
    "city": "Bellante",
    "zipCode": "64020",
    "province": "TE",
    "phoneNumber": "+39 0861 616436",
    "id": 10366,
    "contactEmail": "info@dipaoloarredamenti.it",
    "href": "www.dipaoloarredamenti.it/punti-vendita/bellante",
    "country": {
      "id": 114,
      "name": "Italy"
    }
  },
  {
    "category": {
      "id": 10,
      "name": "Hexagon Dealer"
    },
    "rank": 1,
    "distance": 0,
    "position": {
      "lat": 44.5310663,
      "lng": 10.8606471000001
    },
    "name": "Mancini Italian Design & Art s.r.l.",
    "address": "Piazza San Lorenzo, 1",
    "city": "Reggio Emilia",
    "zipCode": "41053",
    "province": "RE",
    "id": 7430,
    "contactEmail": "info@mancinimida.com",
    "country": {
      "id": 114,
      "name": "Italy"
    }
  },
  {
    "category": {
      "id": 10,
      "name": "Hexagon Dealer"
    },
    "rank": 1,
    "distance": 0,
    "position": {
      "lat": 45.4764997,
      "lng": 11.6960854
    },
    "name": "ad Dal Pozzo",
    "address": "Via Giuseppe Mazzini, 24",
    "city": "Grisignano Di Zocco",
    "zipCode": "36040",
    "province": "VI",
    "phoneNumber": "+39 0444 614521",
    "id": 325,
    "contactEmail": "info@arredodalpozzo.it",
    "href": "www.arredodalpozzo.it",
    "country": {
      "id": 114,
      "name": "Italy"
    }
  },
  {
    "category": {
      "id": 10,
      "name": "Hexagon Dealer"
    },
    "rank": 1,
    "distance": 0,
    "position": {
      "lat": 45.0163157,
      "lng": 10.7267263
    },
    "name": "Mondini Arredamenti Srl",
    "address": "Via Fiorini - S.S. Cisa Loc. Croce del Gallo",
    "city": "Suzzara",
    "zipCode": "46029",
    "province": "MN",
    "id": 9543,
    "contactEmail": "nicolo.mondini@mondiniarredamenti.it",
    "href": "www.mondiniarredamenti.it",
    "country": {
      "id": 114,
      "name": "Italy"
    }
  },
  {
    "category": {
      "id": 10,
      "name": "Hexagon Dealer"
    },
    "rank": 1,
    "distance": 0,
    "position": {
      "lat": 45.6734926,
      "lng": 11.9592068
    },
    "name": "Interni d'Insieme s.a.s. di Tonello Maurizio & c.",
    "address": "Via Sile, 24",
    "city": "Castelfranco Veneto",
    "zipCode": "31033",
    "province": "TV",
    "phoneNumber": "+39 0423 724004",
    "id": 365,
    "contactEmail": "interni.dinsieme@hotmail.it",
    "country": {
      "id": 114,
      "name": "Italy"
    }
  },
  {
    "category": {
      "id": 10,
      "name": "Hexagon Dealer"
    },
    "rank": 1,
    "distance": 0,
    "position": {
      "lat": 45.8090095,
      "lng": 12.6222376
    },
    "name": "l'Ambiente Srl",
    "address": "Via Pordenone, 27",
    "city": "Motta Di Livenza",
    "zipCode": "31045",
    "province": "TV",
    "phoneNumber": "+39 0422 863768",
    "id": 345,
    "contactEmail": "comunicazioni@lambiente.it",
    "country": {
      "id": 114,
      "name": "Italy"
    }
  },
  {
    "category": {
      "id": 10,
      "name": "Hexagon Dealer"
    },
    "rank": 1,
    "distance": 0,
    "position": {
      "lat": 45.6849569091805,
      "lng": 11.7715501785278
    },
    "name": "Basso Arredamenti",
    "address": "Via Sole, 15",
    "city": "Tezze Sul Brenta",
    "zipCode": "36056",
    "province": "VI",
    "phoneNumber": "+39 042 4560321",
    "id": 31011,
    "contactEmail": "commerciale@bassoarredamenti.it",
    "country": {
      "id": 114,
      "name": "Italy"
    }
  },
  {
    "category": {
      "id": 10,
      "name": "Hexagon Dealer"
    },
    "rank": 1,
    "distance": 0,
    "position": {
      "lat": 45.609343,
      "lng": 11.499513
    },
    "name": "Fontana Srl",
    "address": "Strada Statale Pasubio, 17",
    "city": "Costabissara",
    "zipCode": "36030",
    "province": "VI",
    "phoneNumber": "+39 0444 557013",
    "id": 314,
    "contactEmail": "perinemanuela@fontanasrl.net",
    "href": "www.fontanasrl.net",
    "country": {
      "id": 114,
      "name": "Italy"
    }
  },
  {
    "category": {
      "id": 10,
      "name": "Hexagon Dealer"
    },
    "rank": 1,
    "distance": 0,
    "position": {
      "lat": 44.0404263,
      "lng": 10.0442853
    },
    "name": "Interni Now",
    "address": "Via del Bravo, 14",
    "city": "Carrara",
    "zipCode": "54033",
    "province": "MS",
    "phoneNumber": "+39 0585 633084",
    "id": 564,
    "contactEmail": "Info@interninow.it",
    "country": {
      "id": 114,
      "name": "Italy"
    }
  },
  {
    "category": {
      "id": 10,
      "name": "Hexagon Dealer"
    },
    "rank": 1,
    "distance": 0,
    "position": {
      "lat": 44.0404263,
      "lng": 10.0442853
    },
    "name": "Forte in | Showroom Interni Now",
    "address": "Via Provinciale, 69",
    "city": "Forte dei Marmi",
    "zipCode": "55042",
    "province": "LU",
    "phoneNumber": "+39 0584 874079",
    "id": 32486,
    "contactEmail": "info@interninow.it",
    "href": "www.intnow.it/it/forte-in-forte-dei-marmi/",
    "country": {
      "id": 114,
      "name": "Italy"
    }
  },
  {
    "category": {
      "id": 10,
      "name": "Hexagon Dealer"
    },
    "rank": 1,
    "distance": 0,
    "position": {
      "lat": 41.8936412,
      "lng": 12.4151597
    },
    "name": "Frattali Srl",
    "address": "Via Aurelia, 678",
    "city": "Roma",
    "zipCode": "00165",
    "province": "RM",
    "phoneNumber": "+39 06 66418943",
    "id": 3954,
    "contactEmail": "infoaurelia@frattali.org",
    "country": {
      "id": 114,
      "name": "Italy"
    }
  },
  {
    "category": {
      "id": 10,
      "name": "Hexagon Dealer"
    },
    "rank": 1,
    "distance": 0,
    "position": {
      "lat": 41.8583531,
      "lng": 12.5994668
    },
    "name": "Remigi Interni",
    "address": "Via Stefano Della Bella, 5/7",
    "city": "Roma",
    "zipCode": "00133",
    "province": "RM",
    "phoneNumber": "+39 06  20419966",
    "id": 343,
    "contactEmail": "remigiinterni@gmail.com",
    "country": {
      "id": 114,
      "name": "Italy"
    }
  },
  {
    "category": {
      "id": 10,
      "name": "Hexagon Dealer"
    },
    "rank": 1,
    "distance": 0,
    "position": {
      "lat": 46.0659487,
      "lng": 13.2346283
    },
    "name": "Cumini Emporio",
    "address": "Via Porta Nuova, 13",
    "city": "Udine",
    "zipCode": "33100",
    "province": "UD",
    "phoneNumber": "+39 0432 506495",
    "id": 33719,
    "contactEmail": "emporio@cumini.com",
    "href": "www.cumininteriors.com",
    "country": {
      "id": 114,
      "name": "Italy"
    }
  },
  {
    "category": {
      "id": 10,
      "name": "Hexagon Dealer"
    },
    "rank": 1,
    "distance": 0,
    "position": {
      "lat": 45.467831,
      "lng": 10.5430866
    },
    "name": "Novaotto | Showroom Mediceream",
    "address": "Via Tommaso dal Molin, 2",
    "city": "Desenzano del Garda",
    "zipCode": "25015",
    "province": "BS",
    "phoneNumber": "+39 030 7285156",
    "id": 31617,
    "country": {
      "id": 114,
      "name": "Italy"
    }
  },
  {
    "category": {
      "id": 10,
      "name": "Hexagon Dealer"
    },
    "rank": 1,
    "distance": 0,
    "position": {
      "lat": 46.2607199,
      "lng": 13.1081284
    },
    "name": "Cumini Interiors",
    "address": "Via San Daniele, 1  ",
    "city": "Gemona Del Friuli",
    "zipCode": "33013",
    "province": "UD",
    "phoneNumber": "+39 0432 971181",
    "id": 328,
    "contactEmail": "casa@cumini.it",
    "country": {
      "id": 114,
      "name": "Italy"
    }
  },
  {
    "category": {
      "id": 10,
      "name": "Hexagon Dealer"
    },
    "rank": 1,
    "distance": 0,
    "position": {
      "lat": 46.0310564,
      "lng": 14.4638929
    },
    "name": "Kult Interier d.o.o.",
    "address": "Cesta v Gorice 34B Poslovni Objekt Imparo",
    "city": "Ljubljana",
    "zipCode": "1000",
    "phoneNumber": "+386 8 2053865",
    "id": 4422,
    "contactEmail": "info@kultinterier.si",
    "country": {
      "id": 200,
      "name": "Slovenia"
    }
  },
  {
    "category": {
      "id": 10,
      "name": "Hexagon Dealer"
    },
    "rank": 1,
    "distance": 0,
    "position": {
      "lat": 44.8707899,
      "lng": 9.6413303
    },
    "name": "Classicdesign.it Srl",
    "address": "Via Acerbi, 44",
    "city": "Ponte dell'Olio",
    "zipCode": "29028",
    "province": "PC",
    "phoneNumber": "+39 0523 874003",
    "id": 8285,
    "contactEmail": "info@classicdesign.it",
    "country": {
      "id": 114,
      "name": "Italy"
    }
  },
  {
    "category": {
      "id": 10,
      "name": "Hexagon Dealer"
    },
    "rank": 1,
    "distance": 0,
    "position": {
      "lat": 45.5303879,
      "lng": 10.1821136999999
    },
    "name": "Zenucchi Design Code",
    "address": "Via Orzinuovi, 129",
    "city": "Brescia",
    "zipCode": "25125",
    "province": "BS",
    "phoneNumber": "+39 030 3776654",
    "id": 289,
    "contactEmail": "info@zenucchi.it",
    "href": "www.zenucchi.it",
    "country": {
      "id": 114,
      "name": "Italy"
    }
  },
  {
    "category": {
      "id": 10,
      "name": "Hexagon Dealer"
    },
    "rank": 1,
    "distance": 0,
    "position": {
      "lat": 45.278763,
      "lng": 9.45822699999997
    },
    "name": "Arredo Bongiorni",
    "address": "Via Leonardo Da Vinci, 15",
    "city": "Pieve Fissiraga",
    "zipCode": "26854",
    "province": "LO",
    "phoneNumber": "+39 0371 239940",
    "id": 3027,
    "contactEmail": "arredobongiorni@arredobongiorni.it",
    "country": {
      "id": 114,
      "name": "Italy"
    }
  },
  {
    "category": {
      "id": 10,
      "name": "Hexagon Dealer"
    },
    "rank": 1,
    "distance": 0,
    "position": {
      "lat": 45.713705,
      "lng": 9.88175
    },
    "name": "Zenucchi Design Code",
    "address": "Piazzale Alberto Meli, 80",
    "city": "Luzzana",
    "zipCode": "24069",
    "province": "BG",
    "phoneNumber": "+39 035 822484",
    "id": 313,
    "contactEmail": "info@zenucchi.it",
    "country": {
      "id": 114,
      "name": "Italy"
    }
  },
  {
    "category": {
      "id": 10,
      "name": "Hexagon Dealer"
    },
    "rank": 1,
    "distance": 0,
    "position": {
      "lat": 45.57095,
      "lng": 9.64335
    },
    "name": "Lazzarini Arredamento",
    "address": "Via Provinciale, 15",
    "city": "Lurano",
    "zipCode": "24050",
    "province": "BG",
    "phoneNumber": "+39 035 4877483",
    "id": 285,
    "contactEmail": "lazzariniarredamento@virgilio.it",
    "country": {
      "id": 114,
      "name": "Italy"
    }
  },
  {
    "category": {
      "id": 10,
      "name": "Hexagon Dealer"
    },
    "rank": 1,
    "distance": 0,
    "position": {
      "lat": 46.6101754,
      "lng": 14.3589288
    },
    "name": "Rooms-Atelier Armw Gmbh",
    "address": "Miegererstraße 25B",
    "city": "Ebenthal in Kärnten",
    "zipCode": "A-9065",
    "phoneNumber": "+43 463 2646790",
    "id": 154,
    "contactEmail": "office@rooms.co.at",
    "country": {
      "id": 13,
      "name": "Austria"
    }
  },
  {
    "category": {
      "id": 10,
      "name": "Hexagon Dealer"
    },
    "rank": 1,
    "distance": 0,
    "position": {
      "lat": 45.810849,
      "lng": 15.9816482
    },
    "name": "Themelia",
    "address": "Palmotićeva ul. 26",
    "city": "Zagreb",
    "zipCode": "1000",
    "phoneNumber": "+385 14922764",
    "id": 163,
    "contactEmail": "themelia@themelia.hr",
    "href": "www.themelia.hr",
    "country": {
      "id": 53,
      "name": "Croatia"
    }
  },
  {
    "category": {
      "id": 10,
      "name": "Hexagon Dealer"
    },
    "rank": 1,
    "distance": 0,
    "position": {
      "lat": 45.4722564,
      "lng": 9.2062775
    },
    "name": "Spotti s.r.l.",
    "address": "Viale Piave, 27",
    "city": "Milano",
    "zipCode": "20129",
    "province": "MI",
    "phoneNumber": "+39 02 781953 ",
    "id": 342,
    "contactEmail": "consegne@spotti.com",
    "country": {
      "id": 114,
      "name": "Italy"
    }
  },
  {
    "category": {
      "id": 9,
      "name": "Hexagon Atelier"
    },
    "rank": 1,
    "distance": 0,
    "position": {
      "lat": 45.469235471705,
      "lng": 9.2019510269165
    },
    "name": "Hexagon Atelier",
    "address": "Via Serbelloni, 14",
    "city": "Milano",
    "zipCode": "20122",
    "province": "MI",
    "phoneNumber": "+39 02 9937 2000",
    "id": 30618,
    "contactEmail": "atelier@hexagon.eu",
    "related": {
      "id": 2596,
      "url": "/it/en/atelier-store/atelier-milan"
    },
    "country": {
      "id": 114,
      "name": "Italy"
    }
  },
  {
    "category": {
      "id": 10,
      "name": "Hexagon Dealer"
    },
    "rank": 1,
    "distance": 0,
    "position": {
      "lat": 45.4639743,
      "lng": 9.1975533
    },
    "name": "Bredaquaranta",
    "address": "Via Durini, 5",
    "city": "Milano",
    "zipCode": "20122",
    "province": "MI",
    "phoneNumber": "+39 02 36638440",
    "id": 41287,
    "contactEmail": "durini@bredaquaranta.it",
    "href": "www.bredaquaranta.it",
    "country": {
      "id": 114,
      "name": "Italy"
    }
  },
  {
    "category": {
      "id": 10,
      "name": "Hexagon Dealer"
    },
    "rank": 1,
    "distance": 0,
    "position": {
      "lat": 45.4730426,
      "lng": 9.1898976
    },
    "name": "Bredaquaranta",
    "address": "via Fatebenefratelli 10",
    "city": "Milano",
    "zipCode": "20121",
    "province": "MI",
    "phoneNumber": "+39 02 36557430",
    "id": 350,
    "contactEmail": "marketing@bredaquaranta.it",
    "country": {
      "id": 114,
      "name": "Italy"
    }
  },
  {
    "category": {
      "id": 10,
      "name": "Hexagon Dealer"
    },
    "rank": 1,
    "distance": 0,
    "position": {
      "lat": 45.6071069,
      "lng": 9.236
    },
    "name": "Unoviamatteotti",
    "address": "Via G. Matteotti, 1",
    "city": "Lissone",
    "zipCode": "20851",
    "province": "MB",
    "phoneNumber": "+39 039 484916",
    "id": 305,
    "contactEmail": "info@unoviamatteotti.it",
    "country": {
      "id": 114,
      "name": "Italy"
    }
  },
  {
    "category": {
      "id": 10,
      "name": "Hexagon Dealer"
    },
    "rank": 1,
    "distance": 0,
    "position": {
      "lat": 45.61142,
      "lng": 9.23592819999999
    },
    "name": "Gelosa s.r.l.",
    "address": "Via Matteotti, 84",
    "city": "Lissone",
    "zipCode": "20851",
    "province": "MB",
    "phoneNumber": "+39 039 482683",
    "id": 6777,
    "contactEmail": "info@gelosaarredi.it",
    "country": {
      "id": 114,
      "name": "Italy"
    }
  },
  {
    "category": {
      "id": 10,
      "name": "Hexagon Dealer"
    },
    "rank": 1,
    "distance": 0,
    "position": {
      "lat": 45.5807043,
      "lng": 9.1820067
    },
    "name": "Carnaby s.r.l.",
    "address": "Via Nuova Valassina, 350",
    "city": "Lissone",
    "zipCode": "20851",
    "province": "MB",
    "phoneNumber": "+39 039 483267",
    "id": 312,
    "contactEmail": "info@carnabysrl.it",
    "country": {
      "id": 114,
      "name": "Italy"
    }
  },
  {
    "category": {
      "id": 10,
      "name": "Hexagon Dealer"
    },
    "rank": 1,
    "distance": 0,
    "position": {
      "lat": 45.6820007,
      "lng": 9.2181689
    },
    "name": "Interni s.p.a",
    "address": "Via Achille Grandi, 73",
    "city": "Verano Brianza",
    "zipCode": "20843",
    "province": "MB",
    "phoneNumber": "+39 0362 902641",
    "id": 322,
    "contactEmail": "verano@internionline.it",
    "country": {
      "id": 114,
      "name": "Italy"
    }
  },
  {
    "category": {
      "id": 10,
      "name": "Hexagon Dealer"
    },
    "rank": 1,
    "distance": 0,
    "position": {
      "lat": 45.7226245,
      "lng": 9.2151528
    },
    "name": "Salvioni Design Solutions",
    "address": "Via Don C. Gnocchi, 1",
    "city": "Inverigo",
    "zipCode": "22044",
    "province": "CO",
    "phoneNumber": "+39 031 3591311",
    "id": 294,
    "contactEmail": "info@salvioniarredamenti.it",
    "country": {
      "id": 114,
      "name": "Italy"
    }
  },
  {
    "category": {
      "id": 10,
      "name": "Hexagon Dealer"
    },
    "rank": 1,
    "distance": 0,
    "position": {
      "lat": 45.6581932,
      "lng": 9.1350771
    },
    "name": "Vago Forniture",
    "address": "Corso Guglielmo Marconi, 52",
    "city": "Barlassina",
    "zipCode": "20825",
    "province": "MB",
    "phoneNumber": "+39 0362 565906",
    "id": 293,
    "contactEmail": "info@vago.com",
    "country": {
      "id": 114,
      "name": "Italy"
    }
  },
  {
    "category": {
      "id": 10,
      "name": "Hexagon Dealer"
    },
    "rank": 1,
    "distance": 0,
    "position": {
      "lat": 41.4557865,
      "lng": 15.5294489
    },
    "name": "d'Angelo Arredamenti",
    "address": "Via Paolo Telesforo, 178",
    "city": "Foggia",
    "zipCode": "71122",
    "province": "FG",
    "phoneNumber": "+39 0881 741743",
    "id": 2850,
    "contactEmail": "dangelo@dangeloarredamenti.com",
    "country": {
      "id": 114,
      "name": "Italy"
    }
  },
  {
    "category": {
      "id": 10,
      "name": "Hexagon Dealer"
    },
    "rank": 1,
    "distance": 0,
    "position": {
      "lat": 40.9297926,
      "lng": 14.2626214
    },
    "name": "Arredamenti Trombetta",
    "address": "Corso Giuseppe Garibaldi, 180",
    "city": "Grumo Nevano",
    "zipCode": "80028",
    "province": "NA",
    "phoneNumber": "+39 081 8337494",
    "id": 324,
    "contactEmail": "info@arredamentitrombetta.it",
    "href": "www.arredamentitrombetta.it",
    "country": {
      "id": 114,
      "name": "Italy"
    }
  },
  {
    "category": {
      "id": 10,
      "name": "Hexagon Dealer"
    },
    "rank": 1,
    "distance": 0,
    "position": {
      "lat": 40.8350948,
      "lng": 14.2193839
    },
    "name": "Franchino Mario & co. Sas",
    "address": "Via Domiziana, 249",
    "city": "Mondragone",
    "zipCode": "81034",
    "province": "CE",
    "phoneNumber": "+39 081 7617591",
    "id": 4290,
    "contactEmail": "info@franchino.it",
    "country": {
      "id": 114,
      "name": "Italy"
    }
  },
  {
    "category": {
      "id": 10,
      "name": "Hexagon Dealer"
    },
    "rank": 1,
    "distance": 0,
    "position": {
      "lat": 45.6021477,
      "lng": 8.8902418
    },
    "name": "6b Arredamenti",
    "address": "Viale Giuseppe Borri, 6B",
    "city": "Castellanza",
    "zipCode": "21053",
    "province": "VA",
    "phoneNumber": "+39 0331 1773048",
    "id": 280,
    "contactEmail": "sara@6b-arredamenti.com",
    "country": {
      "id": 114,
      "name": "Italy"
    }
  },
  {
    "category": {
      "id": 10,
      "name": "Hexagon Dealer"
    },
    "rank": 1,
    "distance": 0,
    "position": {
      "lat": 45.810179,
      "lng": 9.0746204
    },
    "name": "Peverelli Arredamenti",
    "address": "Via Recchi 2/A",
    "city": "Como",
    "zipCode": "22100",
    "province": "CO",
    "phoneNumber": "+39 031 264688",
    "id": 299,
    "contactEmail": "info-como@peverelliarredamenti.it",
    "country": {
      "id": 114,
      "name": "Italy"
    }
  },
  {
    "category": {
      "id": 10,
      "name": "Hexagon Dealer"
    },
    "rank": 1,
    "distance": 0,
    "position": {
      "lat": 40.9065795,
      "lng": 14.7483112
    },
    "name": "2c Arredamenti Corbetta Cimnaghi",
    "address": "Via Nazionale Torrette, 390",
    "city": "Mercogliano",
    "zipCode": "83013",
    "province": "AV",
    "phoneNumber": "+ 39 0825 681146",
    "id": 32691,
    "country": {
      "id": 114,
      "name": "Italy"
    }
  },
  {
    "category": {
      "id": 10,
      "name": "Hexagon Dealer"
    },
    "rank": 1,
    "distance": 0,
    "position": {
      "lat": 44.004373,
      "lng": 8.169558
    },
    "name": "a.d.m. Arredamenti Melgrati m.& s. s.a.s.",
    "address": "Viale Hanbury, 3",
    "city": "Alassio",
    "zipCode": "17021",
    "province": "SV",
    "phoneNumber": "+39 0182 644557",
    "id": 367,
    "contactEmail": "silvio.melgrati@uno.it",
    "country": {
      "id": 114,
      "name": "Italy"
    }
  },
  {
    "category": {
      "id": 10,
      "name": "Hexagon Dealer"
    },
    "rank": 1,
    "distance": 0,
    "position": {
      "lat": 45.1381282,
      "lng": 8.45190330000003
    },
    "name": "Pagliano Arredamenti",
    "address": "Via Paleologi, 30",
    "city": "Casale Monferrato",
    "zipCode": "15033",
    "province": "AL",
    "phoneNumber": "+39 0142 73695",
    "id": 10378,
    "country": {
      "id": 114,
      "name": "Italy"
    }
  },
  {
    "category": {
      "id": 10,
      "name": "Hexagon Dealer"
    },
    "rank": 1,
    "distance": 0,
    "position": {
      "lat": 45.8728137,
      "lng": 8.9776621
    },
    "name": "Arredamenti Bernasconi",
    "address": "Via Borromini 8",
    "city": "Mendrisio",
    "zipCode": "06850",
    "phoneNumber": "+41 91 6461878",
    "id": 286,
    "contactEmail": "info@arredamentibernasconi.ch",
    "country": {
      "id": 209,
      "name": "Switzerland"
    }
  },
  {
    "category": {
      "id": 10,
      "name": "Hexagon Dealer"
    },
    "rank": 1,
    "distance": 0,
    "position": {
      "lat": 45.9869267,
      "lng": 8.9391381
    },
    "name": "Interni Arredamenti",
    "address": "Via Alla Sguancia 5",
    "city": "Pazzallo",
    "zipCode": "6912",
    "phoneNumber": "+41 91 9949433",
    "id": 273,
    "contactEmail": "interni@interni-arredamenti.com",
    "country": {
      "id": 209,
      "name": "Switzerland"
    }
  },
  {
    "category": {
      "id": 10,
      "name": "Hexagon Dealer"
    },
    "rank": 1,
    "distance": 0,
    "position": {
      "lat": 46.0072567,
      "lng": 8.95121619999998
    },
    "name": "Salvioni Lugano Design Solutions",
    "address": "Via Ferruccio Pelli 2",
    "city": "Lugano",
    "zipCode": "6900",
    "phoneNumber": "+41 (0) 91 9213525",
    "id": 496,
    "contactEmail": "info.online@salvionilugano.ch",
    "country": {
      "id": 209,
      "name": "Switzerland"
    }
  },
  {
    "category": {
      "id": 10,
      "name": "Hexagon Dealer"
    },
    "rank": 1,
    "distance": 0,
    "position": {
      "lat": 44.68147,
      "lng": 8.06705
    },
    "name": "Marcarino Arredamenti",
    "address": "Fraz. San Rocco Seno d'Elvio, 3",
    "city": "Alba",
    "zipCode": "12051",
    "province": "CN",
    "phoneNumber": "+39 0173 441914",
    "id": 315,
    "contactEmail": "marcarino@marcarino.com",
    "country": {
      "id": 114,
      "name": "Italy"
    }
  },
  {
    "category": {
      "id": 10,
      "name": "Hexagon Dealer"
    },
    "rank": 1,
    "distance": 0,
    "position": {
      "lat": 47.3385661,
      "lng": 11.855234
    },
    "name": "Wetscher Gmbh & co.kg",
    "address": "Zillertal Bundestr.",
    "city": "Fügen",
    "zipCode": "6263",
    "phoneNumber": "+ 43 5288 6000",
    "id": 171,
    "contactEmail": "mail@wetscher.com",
    "country": {
      "id": 13,
      "name": "Austria"
    }
  },
  {
    "category": {
      "id": 10,
      "name": "Hexagon Dealer"
    },
    "rank": 1,
    "distance": 0,
    "position": {
      "lat": 47.2768865,
      "lng": 11.4378986
    },
    "name": "Reiter Design Gmbh",
    "address": "Haller Str. 201",
    "city": "Innsbruck",
    "zipCode": "6040",
    "phoneNumber": "+43 512 24433346",
    "id": 174,
    "contactEmail": "a.peer@reiter.design",
    "country": {
      "id": 13,
      "name": "Austria"
    }
  },
  {
    "category": {
      "id": 10,
      "name": "Hexagon Dealer"
    },
    "rank": 1,
    "distance": 0,
    "position": {
      "lat": 46.155916,
      "lng": 8.9706502
    },
    "name": "Delco' Mobili",
    "address": "via Gorelle 1",
    "city": "S. Antonino",
    "zipCode": "6592",
    "phoneNumber": "+41 91 2242727",
    "id": 326,
    "contactEmail": "info@delcomobili.ch",
    "country": {
      "id": 209,
      "name": "Switzerland"
    }
  },
  {
    "category": {
      "id": 10,
      "name": "Hexagon Dealer"
    },
    "rank": 1,
    "distance": 0,
    "position": {
      "lat": 47.3678395,
      "lng": 11.8489124
    },
    "name": "möBel Freudling Gmbh",
    "address": "Gewerbeweg 3",
    "city": "Fügen",
    "zipCode": "6263",
    "phoneNumber": "+43 5288 62215",
    "id": 3773,
    "contactEmail": "wohndesign@freudling.at",
    "country": {
      "id": 13,
      "name": "Austria"
    }
  },
  {
    "category": {
      "id": 10,
      "name": "Hexagon Dealer"
    },
    "rank": 1,
    "distance": 0,
    "position": {
      "lat": 47.4443943,
      "lng": 12.3949001999999
    },
    "name": "KitzbüHeler WerkstäTten",
    "address": "Jochberger Strasse 1",
    "city": "Kitzbühel",
    "zipCode": "6370",
    "phoneNumber": "+43 5356 64757",
    "id": 3100,
    "contactEmail": "office@kitzwerk.at",
    "country": {
      "id": 13,
      "name": "Austria"
    }
  },
  {
    "category": {
      "id": 10,
      "name": "Hexagon Dealer"
    },
    "rank": 1,
    "distance": 0,
    "position": {
      "lat": 46.8538471,
      "lng": 15.7416409
    },
    "name": "Schaden LebensräUme",
    "address": "Jagerberg 91",
    "city": "Jagerberg",
    "zipCode": "A-8091",
    "phoneNumber": "+43 31 848209",
    "id": 3111,
    "contactEmail": "office@schaden.co.at",
    "country": {
      "id": 13,
      "name": "Austria"
    }
  },
  {
    "category": {
      "id": 10,
      "name": "Hexagon Dealer"
    },
    "rank": 1,
    "distance": 0,
    "position": {
      "lat": 47.0719813,
      "lng": 15.4481501
    },
    "name": "René Rauschl Interior Design Gmbh",
    "address": "Leonhardstraße 4",
    "city": "Graz",
    "zipCode": "8010",
    "phoneNumber": "+43 (0) 664 50 55 842",
    "id": 32919,
    "contactEmail": "rene.rauschl@gmx.at",
    "country": {
      "id": 13,
      "name": "Austria"
    }
  },
  {
    "category": {
      "id": 10,
      "name": "Hexagon Dealer"
    },
    "rank": 1,
    "distance": 0,
    "position": {
      "lat": 41.2215,
      "lng": 16.28524
    },
    "name": "Gan Design Lab",
    "address": "Don R. Lotti, 68",
    "city": "Andria",
    "zipCode": "76123",
    "province": "BT",
    "phoneNumber": "+39 0883 896 390",
    "id": 8464,
    "contactEmail": "info@gandesignlab.com",
    "country": {
      "id": 114,
      "name": "Italy"
    }
  },
  {
    "category": {
      "id": 10,
      "name": "Hexagon Dealer"
    },
    "rank": 1,
    "distance": 0,
    "position": {
      "lat": 43.8659272,
      "lng": 7.6677652
    },
    "name": "Arredamenti Fogliarini",
    "address": "SP59, km 9,6,",
    "city": "Perinaldo",
    "zipCode": "18032",
    "province": "IM",
    "phoneNumber": "+39 0184 672023",
    "id": 357,
    "contactEmail": "info@fogliarini.com",
    "country": {
      "id": 114,
      "name": "Italy"
    }
  },
  {
    "category": {
      "id": 10,
      "name": "Hexagon Dealer"
    },
    "rank": 1,
    "distance": 0,
    "position": {
      "lat": 43.7478781,
      "lng": 7.43480439999996
    },
    "name": "Sabrina Montecarlo",
    "address": "Avenue Princesse Grace, 39",
    "city": "Monaco",
    "zipCode": "98000",
    "phoneNumber": "+377 97 975760",
    "id": 741,
    "contactEmail": "contact@sabrinamontecarlo.com",
    "country": {
      "id": 148,
      "name": "Monaco"
    }
  },
  {
    "category": {
      "id": 10,
      "name": "Hexagon Dealer"
    },
    "rank": 1,
    "distance": 0,
    "position": {
      "lat": 43.7471502,
      "lng": 7.4315322
    },
    "name": "Wood Work Monaco",
    "address": "15, Boulevard d'Italie",
    "city": "Monaco",
    "zipCode": "MC 98000",
    "phoneNumber": "+377 93 302226",
    "id": 134,
    "contactEmail": "sima.ganoudi@woodwork.mc",
    "country": {
      "id": 148,
      "name": "Monaco"
    }
  },
  {
    "category": {
      "id": 10,
      "name": "Hexagon Dealer"
    },
    "rank": 1,
    "distance": 0,
    "position": {
      "lat": 47.7999128,
      "lng": 13.0538216
    },
    "name": "SchöNer Wohnen",
    "address": "Imbergstrasse 43 & 51-55",
    "city": "Salzburg",
    "zipCode": "5020",
    "phoneNumber": "+43 662 640474",
    "id": 480,
    "contactEmail": "info@schoener-wohnen.cc",
    "country": {
      "id": 13,
      "name": "Austria"
    }
  },
  {
    "category": {
      "id": 10,
      "name": "Hexagon Dealer"
    },
    "rank": 1,
    "distance": 0,
    "position": {
      "lat": 47.8077787,
      "lng": 13.0457464
    },
    "name": "Famler Einrichtungen",
    "address": "Haydnstraße 16",
    "city": "Salzburg",
    "zipCode": "5020",
    "phoneNumber": "+ 43 662 8746400",
    "id": 472,
    "contactEmail": "info@famler.at",
    "country": {
      "id": 13,
      "name": "Austria"
    }
  },
  {
    "category": {
      "id": 10,
      "name": "Hexagon Dealer"
    },
    "rank": 1,
    "distance": 0,
    "position": {
      "lat": 40.5805699,
      "lng": 15.6746906
    },
    "name": "Interni Espressioni",
    "address": "Via Roma, 154",
    "city": "Tito",
    "zipCode": "85050",
    "province": "PZ",
    "phoneNumber": "+39 0971 798648",
    "id": 6254,
    "contactEmail": "info@interniespressioni.it",
    "country": {
      "id": 114,
      "name": "Italy"
    }
  },
  {
    "category": {
      "id": 10,
      "name": "Hexagon Dealer"
    },
    "rank": 1,
    "distance": 0,
    "position": {
      "lat": 47.1676767,
      "lng": 9.5075617
    },
    "name": "thöny Wohnen",
    "address": "Bahnhofstr. 16",
    "city": "Schaan",
    "zipCode": "9494",
    "phoneNumber": "+42 32374141",
    "id": 321,
    "contactEmail": "info@moebelthoeny.li",
    "country": {
      "id": 127,
      "name": "Liechtenstein"
    }
  },
  {
    "category": {
      "id": 10,
      "name": "Hexagon Dealer"
    },
    "rank": 1,
    "distance": 0,
    "position": {
      "lat": 47.2893633,
      "lng": 9.6208819
    },
    "name": "Reiter Design Gmbh",
    "address": "Bundesstraße 102",
    "city": "Rankweil",
    "zipCode": "6839",
    "phoneNumber": "+43 5522 81770",
    "id": 165,
    "contactEmail": "office@reiter.design",
    "href": "www.reiter.design",
    "country": {
      "id": 13,
      "name": "Austria"
    }
  },
  {
    "category": {
      "id": 10,
      "name": "Hexagon Dealer"
    },
    "rank": 1,
    "distance": 0,
    "position": {
      "lat": 47.4215675,
      "lng": 9.7371046
    },
    "name": "höTtges",
    "address": "Rhomberg's Fabrik, Färbergasse 15",
    "city": "Dornbirn",
    "zipCode": "6850",
    "phoneNumber": "+43 (0)55 72 22175",
    "id": 41288,
    "contactEmail": "office@hoettges.at",
    "href": "https://www.xn--httges-wxa.at/home",
    "country": {
      "id": 13,
      "name": "Austria"
    }
  },
  {
    "category": {
      "id": 10,
      "name": "Hexagon Dealer"
    },
    "rank": 1,
    "distance": 0,
    "position": {
      "lat": 40.816093,
      "lng": 16.54169
    },
    "name": "Carlucci Home Project",
    "address": "Via Selva, 224",
    "city": "Altamura",
    "zipCode": "70022",
    "province": "BA",
    "phoneNumber": "+39 080 3146657",
    "id": 2929,
    "contactEmail": "info@carlucciarredamento.it",
    "country": {
      "id": 114,
      "name": "Italy"
    }
  },
  {
    "category": {
      "id": 10,
      "name": "Hexagon Dealer"
    },
    "rank": 1,
    "distance": 0,
    "position": {
      "lat": 43.5509893,
      "lng": 7.0259393
    },
    "name": "Danish Design House",
    "address": "Rond-Point Duboys d'Angers",
    "city": "Cannes",
    "zipCode": "06400",
    "phoneNumber": "+33 4 93686866",
    "id": 141,
    "contactEmail": "info@danishdesignhouse.net",
    "country": {
      "id": 67,
      "name": "France"
    }
  },
  {
    "category": {
      "id": 10,
      "name": "Hexagon Dealer"
    },
    "rank": 1,
    "distance": 0,
    "position": {
      "lat": 48.0686362,
      "lng": 11.6734983
    },
    "name": "Casa Idea Gmbh",
    "address": "Putzbrunner Str. 75",
    "city": "Ottobrunn",
    "zipCode": "85521",
    "phoneNumber": "+49 (0) 89 81305535",
    "id": 10361,
    "contactEmail": "info@casa-idea.de",
    "href": "www.casa-idea.de",
    "country": {
      "id": 72,
      "name": "Germany"
    }
  },
  {
    "category": {
      "id": 10,
      "name": "Hexagon Dealer"
    },
    "rank": 1,
    "distance": 0,
    "position": {
      "lat": 47.5459657,
      "lng": 9.684346
    },
    "name": "Viktor Einrichtungen",
    "address": "Ludwigstrasse 22",
    "city": "Lindau",
    "zipCode": "88131",
    "phoneNumber": "+49 (0) 8373 8349",
    "id": 232,
    "contactEmail": "lindau@viktor-einrichtungen.de",
    "country": {
      "id": 72,
      "name": "Germany"
    }
  },
  {
    "category": {
      "id": 10,
      "name": "Hexagon Dealer"
    },
    "rank": 1,
    "distance": 0,
    "position": {
      "lat": 47.54593,
      "lng": 9.68291
    },
    "name": "böhm - Die Einrichtung",
    "address": "Maximilianstr. 21",
    "city": "Lindau",
    "zipCode": "88131",
    "phoneNumber": "+49 (0) 8382 6051",
    "id": 206,
    "contactEmail": "boehm.dieeinrichtungen@t-online.de",
    "country": {
      "id": 72,
      "name": "Germany"
    }
  },
  {
    "category": {
      "id": 10,
      "name": "Hexagon Dealer"
    },
    "rank": 1,
    "distance": 0,
    "position": {
      "lat": 47.5609572,
      "lng": 9.6852935
    },
    "name": "Die Einrichtungslounge Gmbh & co. kg",
    "address": "Friedrichshafener Str. 57",
    "city": "Lindau",
    "zipCode": "88131",
    "phoneNumber": "+49 (0) 8382 2748031",
    "id": 237,
    "contactEmail": "waldburg-zeil@dieeinrichtungslounge.com",
    "href": "www.dieeinrichtungslounge.com",
    "country": {
      "id": 72,
      "name": "Germany"
    }
  },
  {
    "category": {
      "id": 10,
      "name": "Hexagon Dealer"
    },
    "rank": 1,
    "distance": 0,
    "position": {
      "lat": 47.416657,
      "lng": 9.2510096
    },
    "name": "Widmer Wohnen",
    "address": "St. Gallenstr.71",
    "city": "Gossau",
    "zipCode": "09200",
    "phoneNumber": "+41 71 3800411",
    "id": 10357,
    "country": {
      "id": 209,
      "name": "Switzerland"
    }
  },
  {
    "category": {
      "id": 10,
      "name": "Hexagon Dealer"
    },
    "rank": 1,
    "distance": 0,
    "position": {
      "lat": 48.1364438,
      "lng": 11.5787611
    },
    "name": "böHmler Einrichtungshaus Gmbh",
    "address": "Tal 11",
    "city": "München",
    "zipCode": "80331",
    "phoneNumber": "+49 (0) 89 21360",
    "id": 255,
    "contactEmail": "info@boehmler.de",
    "country": {
      "id": 72,
      "name": "Germany"
    }
  },
  {
    "category": {
      "id": 10,
      "name": "Hexagon Dealer"
    },
    "rank": 1,
    "distance": 0,
    "position": {
      "lat": 48.1405643,
      "lng": 11.5725545
    },
    "name": "Neue WerkstäTten Einrichtungshaus",
    "address": "Promenadenplatz 8",
    "city": "München",
    "zipCode": "80333",
    "phoneNumber": "+49 (0) 89 2420500",
    "id": 221,
    "contactEmail": "angela.brandner@neue-werkstaetten.de",
    "country": {
      "id": 72,
      "name": "Germany"
    }
  },
  {
    "category": {
      "id": 10,
      "name": "Hexagon Dealer"
    },
    "rank": 1,
    "distance": 0,
    "position": {
      "lat": 48.1507619,
      "lng": 11.5402716
    },
    "name": "Egetemeier Wohnkultur Gmbh",
    "address": "Nymphenburger Str. 121",
    "city": "München",
    "zipCode": "80636",
    "phoneNumber": "+49 (0) 89 595512",
    "id": 207,
    "contactEmail": "info@egetemeier.de",
    "country": {
      "id": 72,
      "name": "Germany"
    }
  },
  {
    "category": {
      "id": 10,
      "name": "Hexagon Dealer"
    },
    "rank": 1,
    "distance": 0,
    "position": {
      "lat": 47.72642,
      "lng": 9.82008
    },
    "name": "Jocham Wohncocktail",
    "address": "Ungerhaus 2",
    "city": "Wangen",
    "zipCode": "88239",
    "phoneNumber": "+49 (0) 7506 9550",
    "id": 251,
    "contactEmail": "info@jocham-wangen.de",
    "country": {
      "id": 72,
      "name": "Germany"
    }
  },
  {
    "category": {
      "id": 10,
      "name": "Hexagon Dealer"
    },
    "rank": 1,
    "distance": 0,
    "position": {
      "lat": 48.2734052,
      "lng": 12.1485693
    },
    "name": "Thalmeier Einrichtungen Gmbh",
    "address": "Marienplatz 1",
    "city": "Dorfen",
    "zipCode": "84405",
    "phoneNumber": "+49 (0) 8081 93670",
    "id": 228,
    "contactEmail": "einrichtungen@thalmeier.org",
    "country": {
      "id": 72,
      "name": "Germany"
    }
  },
  {
    "category": {
      "id": 10,
      "name": "Hexagon Dealer"
    },
    "rank": 1,
    "distance": 0,
    "position": {
      "lat": 47.4628952,
      "lng": 9.0552311
    },
    "name": "Gamma ag Einrichtungshaus",
    "address": "St. Gallerstrasse 45",
    "city": "Wil",
    "zipCode": "09500",
    "phoneNumber": "+41 71 9148888",
    "id": 316,
    "contactEmail": "info@gamma.ch",
    "country": {
      "id": 209,
      "name": "Switzerland"
    }
  },
  {
    "category": {
      "id": 10,
      "name": "Hexagon Dealer"
    },
    "rank": 1,
    "distance": 0,
    "position": {
      "lat": 48.303746,
      "lng": 11.9070494
    },
    "name": "Thalmeier Einrichtungen Gmbh",
    "address": "Haager Straße 10",
    "city": "Erding",
    "zipCode": "85435",
    "phoneNumber": "+49 (0) 8122 95984-30",
    "id": 527,
    "contactEmail": "erding@thalmeier.com",
    "country": {
      "id": 72,
      "name": "Germany"
    }
  },
  {
    "category": {
      "id": 10,
      "name": "Hexagon Dealer"
    },
    "rank": 1,
    "distance": 0,
    "position": {
      "lat": 47.0221911,
      "lng": 8.2934104
    },
    "name": "möBel Amrein ag",
    "address": "Schlundstr. 80",
    "city": "Kriens",
    "zipCode": "6010",
    "phoneNumber": "+41 41 3185005",
    "id": 283,
    "contactEmail": "info@amrein.ch",
    "country": {
      "id": 209,
      "name": "Switzerland"
    }
  },
  {
    "category": {
      "id": 10,
      "name": "Hexagon Dealer"
    },
    "rank": 1,
    "distance": 0,
    "position": {
      "lat": 47.7833671,
      "lng": 9.6099677
    },
    "name": "Maurer Wohnen kg",
    "address": "Eisenbahnstr. 26",
    "city": "Ravensburg",
    "zipCode": "88212",
    "phoneNumber": "+49 (0) 751 362340",
    "id": 272,
    "contactEmail": "info@maurer-wohnen.de",
    "country": {
      "id": 72,
      "name": "Germany"
    }
  },
  {
    "category": {
      "id": 10,
      "name": "Hexagon Dealer"
    },
    "rank": 1,
    "distance": 0,
    "position": {
      "lat": 48.3009984,
      "lng": 14.2931842
    },
    "name": "Schantl Interiors",
    "address": "Dametzstraße 53",
    "city": "Linz",
    "zipCode": "4020",
    "phoneNumber": "+43 732 779863",
    "id": 144,
    "contactEmail": "info@schantl.at",
    "country": {
      "id": 13,
      "name": "Austria"
    }
  },
  {
    "category": {
      "id": 10,
      "name": "Hexagon Dealer"
    },
    "rank": 1,
    "distance": 0,
    "position": {
      "lat": 47.3405626,
      "lng": 8.56785709999997
    },
    "name": "Concept ci Interiors",
    "address": "Seestrasse 37",
    "city": "Zollikon",
    "zipCode": "8702",
    "phoneNumber": "+41 44 3962200",
    "id": 4098,
    "contactEmail": "info@ci-interiors.ch",
    "country": {
      "id": 209,
      "name": "Switzerland"
    }
  },
  {
    "category": {
      "id": 10,
      "name": "Hexagon Dealer"
    },
    "rank": 1,
    "distance": 0,
    "position": {
      "lat": 47.68595,
      "lng": 9.15259
    },
    "name": "Leopold Fretz Gmbh & co. kg",
    "address": "Fürstenbergstr. 38-41",
    "city": "Konstanz",
    "zipCode": "78467",
    "phoneNumber": "+49 (0) 7531 924090",
    "id": 210,
    "contactEmail": "kontakt@fretz.de",
    "country": {
      "id": 72,
      "name": "Germany"
    }
  },
  {
    "category": {
      "id": 10,
      "name": "Hexagon Dealer"
    },
    "rank": 1,
    "distance": 0,
    "position": {
      "lat": 47.3635371,
      "lng": 8.5481945
    },
    "name": "Ottagono+Rechsteiner Inneneinrichtungen ag",
    "address": "Dufourstrasse 29",
    "city": "Zürich",
    "zipCode": "8008",
    "phoneNumber": "+41 44 2014500",
    "id": 310,
    "contactEmail": "info@ottagono.ch",
    "country": {
      "id": 209,
      "name": "Switzerland"
    }
  },
  {
    "category": {
      "id": 10,
      "name": "Hexagon Dealer"
    },
    "rank": 1,
    "distance": 0,
    "position": {
      "lat": 47.4191162,
      "lng": 8.6306159
    },
    "name": "Zingg-Lamprecht ag",
    "address": "Stationstrasse 1-3",
    "city": "Bruettisellen",
    "zipCode": "08306",
    "phoneNumber": "+41 43 2557070",
    "id": 275,
    "contactEmail": "info@zingg-lamprecht.ch",
    "country": {
      "id": 209,
      "name": "Switzerland"
    }
  },
  {
    "category": {
      "id": 10,
      "name": "Hexagon Dealer"
    },
    "rank": 1,
    "distance": 0,
    "position": {
      "lat": 40.6994937,
      "lng": 17.3382117
    },
    "name": "Ilh Srl | Mastrovito Espressioni",
    "address": "Via Taranto, 41",
    "city": "Martina Franca",
    "zipCode": "74015",
    "province": "TA",
    "phoneNumber": "+39 080 4301775",
    "id": 32689,
    "contactEmail": "martina@mastrovitoespressioni.it",
    "country": {
      "id": 114,
      "name": "Italy"
    }
  },
  {
    "category": {
      "id": 10,
      "name": "Hexagon Dealer"
    },
    "rank": 1,
    "distance": 0,
    "position": {
      "lat": 48.48228,
      "lng": 11.70977
    },
    "name": "Birgit Otte Interior Gmbh",
    "address": "Im Schlossgutfeld 1-2",
    "city": "Wolfersdorf",
    "zipCode": "85395",
    "phoneNumber": "+49 (0) 8168 9989055",
    "id": 245,
    "contactEmail": "info@birgitotte.com",
    "country": {
      "id": 72,
      "name": "Germany"
    }
  },
  {
    "category": {
      "id": 10,
      "name": "Hexagon Dealer"
    },
    "rank": 1,
    "distance": 0,
    "position": {
      "lat": 48.0992744,
      "lng": 9.7877366
    },
    "name": "Heinzel Einrichtungen",
    "address": "Gymnasiumstr. 20",
    "city": "Biberach",
    "zipCode": "88400",
    "phoneNumber": "+49 (0) 7351 80169",
    "id": 198,
    "contactEmail": "heinzel_einrichtungen@t-online.de",
    "country": {
      "id": 72,
      "name": "Germany"
    }
  },
  {
    "category": {
      "id": 10,
      "name": "Hexagon Dealer"
    },
    "rank": 1,
    "distance": 0,
    "position": {
      "lat": 48.2279755,
      "lng": 9.882367
    },
    "name": "möBel Mock Einrichtungen",
    "address": "Rabenstr. 25",
    "city": "Laupheim",
    "zipCode": "88471",
    "phoneNumber": "+49 (0) 7392 3606",
    "id": 281,
    "contactEmail": "kontakt@moebelmock.de",
    "country": {
      "id": 72,
      "name": "Germany"
    }
  },
  {
    "category": {
      "id": 10,
      "name": "Hexagon Dealer"
    },
    "rank": 1,
    "distance": 0,
    "position": {
      "lat": 46.4407135,
      "lng": 6.8912563
    },
    "name": "Viquerat Decoration",
    "address": "Rue Du Lac,107",
    "city": "Clarens-Montreux",
    "zipCode": "1815",
    "phoneNumber": "+41 21 9642221",
    "id": 306,
    "contactEmail": "info@viqueratdecoration.com",
    "country": {
      "id": 209,
      "name": "Switzerland"
    }
  },
  {
    "category": {
      "id": 10,
      "name": "Hexagon Dealer"
    },
    "rank": 1,
    "distance": 0,
    "position": {
      "lat": 47.6341584,
      "lng": 8.2834371
    },
    "name": "Seipp Wohnen Gmbh",
    "address": "Schaffhauser Str. 36",
    "city": "Tiengen",
    "zipCode": "79761",
    "phoneNumber": "+49 (0) 7741 60900",
    "id": 246,
    "contactEmail": "s.berger@seipp.com",
    "country": {
      "id": 72,
      "name": "Germany"
    }
  },
  {
    "category": {
      "id": 10,
      "name": "Hexagon Dealer"
    },
    "rank": 1,
    "distance": 0,
    "position": {
      "lat": 47.6227488,
      "lng": 8.2158569
    },
    "name": "Seipp Wohnen",
    "address": "Bismarckstr. 35",
    "city": "Waldshut",
    "zipCode": "79761",
    "phoneNumber": "+49 (0) 7751 8360",
    "id": 236,
    "contactEmail": "wohnen@seipp.com",
    "country": {
      "id": 72,
      "name": "Germany"
    }
  },
  {
    "category": {
      "id": 10,
      "name": "Hexagon Dealer"
    },
    "rank": 1,
    "distance": 0,
    "position": {
      "lat": 46.8056527,
      "lng": 7.1583156
    },
    "name": "Styledesign Carriero",
    "address": "Rue de Lausanne 53",
    "city": "Fribourg",
    "zipCode": "01700",
    "phoneNumber": "+41 26 3231750",
    "id": 295,
    "contactEmail": "webmaster@styledesigninteriors.com",
    "country": {
      "id": 209,
      "name": "Switzerland"
    }
  },
  {
    "category": {
      "id": 10,
      "name": "Hexagon Dealer"
    },
    "rank": 1,
    "distance": 0,
    "position": {
      "lat": 42.4312748,
      "lng": 19.2627982
    },
    "name": "Artefacto+ Design Center d.o.o.",
    "address": "Bulevar Svetog Petra Cetinjskog Ulica II",
    "city": "Podgorica",
    "zipCode": "81000",
    "phoneNumber": "+381 11 3226467",
    "id": 155,
    "contactEmail": "info@artefactoplus.me",
    "country": {
      "id": 246,
      "name": "Montenegro"
    }
  },
  {
    "category": {
      "id": 10,
      "name": "Hexagon Dealer"
    },
    "rank": 1,
    "distance": 0,
    "position": {
      "lat": 47.98062,
      "lng": 8.80394
    },
    "name": "Schatz Gmbh & co. kg",
    "address": "Möhringer Str. 114",
    "city": "Tuttlingen",
    "zipCode": "78532",
    "phoneNumber": "+49 (0) 7461 94940",
    "id": 216,
    "contactEmail": "info@schatz-wohnen.de",
    "country": {
      "id": 72,
      "name": "Germany"
    }
  },
  {
    "category": {
      "id": 10,
      "name": "Hexagon Dealer"
    },
    "rank": 1,
    "distance": 0,
    "position": {
      "lat": 48.2041253,
      "lng": 16.3560047
    },
    "name": "Smart Living Gmbh",
    "address": "Burggasse 7-9",
    "city": "Wien",
    "zipCode": "1070",
    "phoneNumber": "+43 1 5352505",
    "id": 145,
    "contactEmail": "office@smartliving.co.at",
    "country": {
      "id": 13,
      "name": "Austria"
    }
  },
  {
    "category": {
      "id": 10,
      "name": "Hexagon Dealer"
    },
    "rank": 1,
    "distance": 0,
    "position": {
      "lat": 48.2081743,
      "lng": 16.3738189
    },
    "name": "Filiali by Rooms Gmbh",
    "address": "Leonhardstraße 4",
    "city": "Wien",
    "zipCode": "1030",
    "phoneNumber": "+43 1 710 50 24",
    "id": 32920,
    "contactEmail": "vienna@rooms.co.at",
    "country": {
      "id": 13,
      "name": "Austria"
    }
  },
  {
    "category": {
      "id": 10,
      "name": "Hexagon Dealer"
    },
    "rank": 1,
    "distance": 0,
    "position": {
      "lat": 48.2116619,
      "lng": 16.3653828
    },
    "name": "Einwaller & Partner Gmbh",
    "address": "Freyung 3",
    "city": "Wien",
    "zipCode": "1010",
    "phoneNumber": "+43 1 5353730",
    "id": 140,
    "contactEmail": "web@einwaller.cc",
    "country": {
      "id": 13,
      "name": "Austria"
    }
  },
  {
    "category": {
      "id": 10,
      "name": "Hexagon Dealer"
    },
    "rank": 1,
    "distance": 0,
    "position": {
      "lat": 48.2106049,
      "lng": 16.3718196
    },
    "name": "Jse Steinwender Interiors Gmbh",
    "address": "Wipplingerstraße 10",
    "city": "Wien",
    "zipCode": "1010",
    "phoneNumber": "+43 1 53333020",
    "id": 153,
    "contactEmail": "verkauf@viktorsteinwender.at",
    "country": {
      "id": 13,
      "name": "Austria"
    }
  },
  {
    "category": {
      "id": 10,
      "name": "Hexagon Dealer"
    },
    "rank": 1,
    "distance": 0,
    "position": {
      "lat": 47.6466677,
      "lng": 7.7785269
    },
    "name": "Einrichten Schweigert kg",
    "address": "Hauptstr. 28",
    "city": "Maulburg",
    "zipCode": "79689",
    "phoneNumber": "+49 (0) 7622 39930",
    "id": 186,
    "contactEmail": "info@schweigert.de",
    "country": {
      "id": 72,
      "name": "Germany"
    }
  },
  {
    "category": {
      "id": 10,
      "name": "Hexagon Dealer"
    },
    "rank": 1,
    "distance": 0,
    "position": {
      "lat": 48.6244615,
      "lng": 9.8300041
    },
    "name": "Steck Einrichtungshaus",
    "address": "Stuttgarter Str. 50",
    "city": "Geislingen/Steige",
    "zipCode": "73312",
    "phoneNumber": "+49 (0) 7331 95490",
    "id": 262,
    "contactEmail": "steck-wohnen@t-online.de",
    "country": {
      "id": 72,
      "name": "Germany"
    }
  },
  {
    "category": {
      "id": 10,
      "name": "Hexagon Dealer"
    },
    "rank": 1,
    "distance": 0,
    "position": {
      "lat": 48.1309878,
      "lng": 17.113642
    },
    "name": "Zeno Showroom",
    "address": "Atrium - Einsteinova 9",
    "city": "Bratislava",
    "phoneNumber": "+421 903 634868",
    "id": 168,
    "contactEmail": "info@zeno.sk",
    "href": "www.zeno.sk",
    "country": {
      "id": 199,
      "name": "Slovakia"
    }
  },
  {
    "category": {
      "id": 10,
      "name": "Hexagon Dealer"
    },
    "rank": 1,
    "distance": 0,
    "position": {
      "lat": 46.2001877,
      "lng": 6.1493768
    },
    "name": "Camille Aryeh Interiors & Architecture",
    "address": "7 place du bourg-de-four",
    "city": "Genève",
    "zipCode": "1204",
    "phoneNumber": "+41 22 8102555",
    "id": 9152,
    "contactEmail": "info@aryeharchitecture.com",
    "country": {
      "id": 209,
      "name": "Switzerland"
    }
  },
  {
    "category": {
      "id": 10,
      "name": "Hexagon Dealer"
    },
    "rank": 1,
    "distance": 0,
    "position": {
      "lat": 48.7013446,
      "lng": 9.6597419
    },
    "name": "Einrichtungshaus Grimm Gmbh & co.",
    "address": "Mittlere Karlstr. 93",
    "city": "Göppingen",
    "zipCode": "73033",
    "phoneNumber": "+49 (0) 7161 963370",
    "id": 194,
    "contactEmail": "info@grimm-einrichtungen.de",
    "country": {
      "id": 72,
      "name": "Germany"
    }
  },
  {
    "category": {
      "id": 10,
      "name": "Hexagon Dealer"
    },
    "rank": 1,
    "distance": 0,
    "position": {
      "lat": 40.3597107,
      "lng": 18.1594975
    },
    "name": "Maxxi di Conoci Valentina",
    "address": "Via Taranto, 110",
    "city": "Lecce",
    "zipCode": "73100",
    "province": "LE",
    "phoneNumber": "+39 0832 090126",
    "id": 358,
    "contactEmail": "info@maxxilecce.it",
    "country": {
      "id": 114,
      "name": "Italy"
    }
  },
  {
    "category": {
      "id": 10,
      "name": "Hexagon Dealer"
    },
    "rank": 1,
    "distance": 0,
    "position": {
      "lat": 48.67495,
      "lng": 9.37614
    },
    "name": "Behr Einrichtungen",
    "address": "Behrstr. 100",
    "city": "Wendlingen",
    "zipCode": "73240",
    "phoneNumber": "+49 (0) 7024 469590",
    "id": 188,
    "contactEmail": "info@behr-einrichtung.de",
    "country": {
      "id": 72,
      "name": "Germany"
    }
  },
  {
    "category": {
      "id": 10,
      "name": "Hexagon Dealer"
    },
    "rank": 1,
    "distance": 0,
    "position": {
      "lat": 47.9959298,
      "lng": 7.8444486
    },
    "name": "kräMer Einrichtungen Gmbh",
    "address": "Bertoldstr. 49",
    "city": "Freiburg",
    "zipCode": "79098",
    "phoneNumber": "+49 (0) 761 368050",
    "id": 213,
    "contactEmail": "info@kraemer-einrichtungen.de",
    "country": {
      "id": 72,
      "name": "Germany"
    }
  },
  {
    "category": {
      "id": 10,
      "name": "Hexagon Dealer"
    },
    "rank": 1,
    "distance": 0,
    "position": {
      "lat": 48.6992186,
      "lng": 9.2207993
    },
    "name": "Heselschwerdt Gmbh Creatives Handwerk",
    "address": "Neuhauser Str. 57",
    "city": "Stuttgart",
    "zipCode": "70599",
    "phoneNumber": "+49 (0) 711 457687",
    "id": 250,
    "contactEmail": "info@heselschwerdt.de",
    "country": {
      "id": 72,
      "name": "Germany"
    }
  },
  {
    "category": {
      "id": 10,
      "name": "Hexagon Dealer"
    },
    "rank": 1,
    "distance": 0,
    "position": {
      "lat": 48.800995,
      "lng": 9.1728096
    },
    "name": "Architare Barbara Benz Einrichten",
    "address": "Stresemannstraße 1, Killesberghöhe",
    "city": "Stuttgart",
    "zipCode": "70192",
    "phoneNumber": "+49 (0) 711 63500",
    "id": 256,
    "contactEmail": "fleiner@architare.de",
    "country": {
      "id": 72,
      "name": "Germany"
    }
  },
  {
    "category": {
      "id": 10,
      "name": "Hexagon Dealer"
    },
    "rank": 1,
    "distance": 0,
    "position": {
      "lat": 48.7172237,
      "lng": 8.885376
    },
    "name": "Wohnkonzepte Alexander Meeh",
    "address": "Rathausplatz 4",
    "city": "Grafenau",
    "zipCode": "71120",
    "phoneNumber": "+49 (0) 7033 304333",
    "id": 253,
    "contactEmail": "alexander@meeh.de",
    "href": "www.meeh.de",
    "country": {
      "id": 72,
      "name": "Germany"
    }
  },
  {
    "category": {
      "id": 10,
      "name": "Hexagon Dealer"
    },
    "rank": 1,
    "distance": 0,
    "position": {
      "lat": 44.8132706,
      "lng": 20.4693034
    },
    "name": "Artefacto",
    "address": "Svetogorska 39",
    "city": "Beograd",
    "zipCode": "1100",
    "phoneNumber": "+381 11 3226467",
    "id": 159,
    "contactEmail": "info@artefacto.rs",
    "href": "www.artefacto.rs",
    "country": {
      "id": 248,
      "name": "Serbia"
    }
  },
  {
    "category": {
      "id": 10,
      "name": "Hexagon Dealer"
    },
    "rank": 1,
    "distance": 0,
    "position": {
      "lat": 49.35551,
      "lng": 11.2571
    },
    "name": "Pfaff Interior & Design",
    "address": "Zum Schwarzachtal 3a",
    "city": "Schwarzenbruck",
    "zipCode": "90592",
    "phoneNumber": "+49 (0) 9128 922122",
    "id": 3069,
    "contactEmail": "info@jpfaff.de",
    "country": {
      "id": 72,
      "name": "Germany"
    }
  },
  {
    "category": {
      "id": 10,
      "name": "Hexagon Dealer"
    },
    "rank": 1,
    "distance": 0,
    "position": {
      "lat": 48.3393,
      "lng": 7.85531
    },
    "name": "Ernst Schaub kg",
    "address": "Schwarzwaldstr. 15",
    "city": "Lahr",
    "zipCode": "77933",
    "phoneNumber": "+49 (0) 7821 9247-0",
    "id": 249,
    "contactEmail": "info@schaub-einrichtungen.de",
    "country": {
      "id": 72,
      "name": "Germany"
    }
  },
  {
    "category": {
      "id": 10,
      "name": "Hexagon Dealer"
    },
    "rank": 1,
    "distance": 0,
    "position": {
      "lat": 49.11055,
      "lng": 9.73413
    },
    "name": "gräTer Einrichtung",
    "address": "Mauerstr. 21",
    "city": "Schwäbisch Hall",
    "zipCode": "74523",
    "phoneNumber": "+49 (0) 791 7427",
    "id": 258,
    "contactEmail": "graeter-einrichtung@t-online.de",
    "country": {
      "id": 72,
      "name": "Germany"
    }
  },
  {
    "category": {
      "id": 10,
      "name": "Hexagon Dealer"
    },
    "rank": 1,
    "distance": 0,
    "position": {
      "lat": 47.500933,
      "lng": 19.048129
    },
    "name": "Interni Budapest",
    "address": "Vigyázó Ferenc u. 3",
    "city": "Budapest",
    "zipCode": "1051",
    "phoneNumber": "+36 12690708",
    "id": 150,
    "contactEmail": "Info@internibudapest.hu",
    "href": "www.internibudapest.hu",
    "country": {
      "id": 92,
      "name": "Hungary"
    }
  },
  {
    "category": {
      "id": 10,
      "name": "Hexagon Dealer"
    },
    "rank": 1,
    "distance": 0,
    "position": {
      "lat": 49.452992,
      "lng": 11.077437
    },
    "name": "Designfunktion",
    "address": "Hauptmarkt 2",
    "city": "Nürnberg",
    "zipCode": "90403",
    "phoneNumber": "+49 (0) 911 99804 - 0",
    "id": 535,
    "contactEmail": "nuernberg@designfunktion.de",
    "country": {
      "id": 72,
      "name": "Germany"
    }
  },
  {
    "category": {
      "id": 10,
      "name": "Hexagon Dealer"
    },
    "rank": 1,
    "distance": 0,
    "position": {
      "lat": 49.4530071,
      "lng": 11.0749991
    },
    "name": "Renner Raum & Idee",
    "address": "Trödelmarkt 10-26",
    "city": "Nürnberg",
    "zipCode": "90403",
    "phoneNumber": "+49 (0) 911 232839",
    "id": 215,
    "contactEmail": "renner@renner-raumundidee.de",
    "country": {
      "id": 72,
      "name": "Germany"
    }
  },
  {
    "category": {
      "id": 10,
      "name": "Hexagon Dealer"
    },
    "rank": 1,
    "distance": 0,
    "position": {
      "lat": 49.3056697,
      "lng": 10.167676
    },
    "name": "m. Jursa Gmbh Einrichtungshaus",
    "address": "Lerchenweg 4",
    "city": "Insingen",
    "zipCode": "91610",
    "phoneNumber": "+49 (0) 9869 1244",
    "id": 229,
    "contactEmail": "Info@jursa.de",
    "country": {
      "id": 72,
      "name": "Germany"
    }
  },
  {
    "category": {
      "id": 10,
      "name": "Hexagon Dealer"
    },
    "rank": 1,
    "distance": 0,
    "position": {
      "lat": 48.8999758,
      "lng": 8.669562
    },
    "name": "Schweizer Wohnen Gmbh",
    "address": "Karlsruher Str. 10",
    "city": "Pforzheim",
    "zipCode": "75719",
    "phoneNumber": "+49 (0) 7231 91660",
    "id": 226,
    "contactEmail": "info@gwinner-schweizer.de",
    "country": {
      "id": 72,
      "name": "Germany"
    }
  },
  {
    "category": {
      "id": 10,
      "name": "Hexagon Dealer"
    },
    "rank": 1,
    "distance": 0,
    "position": {
      "lat": 48.7550405,
      "lng": 8.24087759999998
    },
    "name": "ip Interior Design",
    "address": "Ludwig-Wilhelm-Straße 22",
    "city": "Baden-Baden",
    "zipCode": "76530",
    "phoneNumber": "+49 (0) 7221 33824",
    "id": 7066,
    "contactEmail": "info@ip-interior-design.de",
    "country": {
      "id": 72,
      "name": "Germany"
    }
  },
  {
    "category": {
      "id": 10,
      "name": "Hexagon Dealer"
    },
    "rank": 1,
    "distance": 0,
    "position": {
      "lat": 38.1257824,
      "lng": 13.3557946
    },
    "name": "Scillufo Arredamenti",
    "address": "Via Nicolò Gallo, 8",
    "city": "Palermo",
    "zipCode": "90139",
    "province": "PA",
    "phoneNumber": "+39 091 6124383",
    "id": 330,
    "contactEmail": "info@scillufoarredamenti.it",
    "country": {
      "id": 114,
      "name": "Italy"
    }
  },
  {
    "category": {
      "id": 10,
      "name": "Hexagon Dealer"
    },
    "rank": 1,
    "distance": 0,
    "position": {
      "lat": 49.5953196,
      "lng": 11.00551
    },
    "name": "döRfler Intern. Wohnkultur",
    "address": "Friedrichstraße 3-5",
    "city": "Erlangen",
    "zipCode": "91054",
    "phoneNumber": "+49 (0) 9131 26038",
    "id": 200,
    "contactEmail": "info@doerfler.de",
    "country": {
      "id": 72,
      "name": "Germany"
    }
  },
  {
    "category": {
      "id": 10,
      "name": "Hexagon Dealer"
    },
    "rank": 1,
    "distance": 0,
    "position": {
      "lat": 41.2384045,
      "lng": 19.9160993
    },
    "name": "Veko",
    "address": "Rruga Industriale 62 Km 1 Tr-Dr",
    "city": "Tirana",
    "zipCode": "P.C. 1029",
    "phoneNumber": "+355 42 407401",
    "id": 10355,
    "contactEmail": "info@veko-al.com",
    "country": {
      "id": 2,
      "name": "Albania"
    }
  },
  {
    "category": {
      "id": 10,
      "name": "Hexagon Dealer"
    },
    "rank": 1,
    "distance": 0,
    "position": {
      "lat": 49.007077,
      "lng": 8.3926984
    },
    "name": "Burger Inneneinrichtung Gmbh",
    "address": "Waldstr. 89-91",
    "city": "Karlsruhe",
    "zipCode": "76133",
    "phoneNumber": "+49 (0) 721 9132221",
    "id": 261,
    "contactEmail": "info@burger.de",
    "country": {
      "id": 72,
      "name": "Germany"
    }
  },
  {
    "category": {
      "id": 10,
      "name": "Hexagon Dealer"
    },
    "rank": 1,
    "distance": 0,
    "position": {
      "lat": 37.8814136,
      "lng": 12.4976346
    },
    "name": "Lombardo Arredi",
    "address": "Contrada Birgi Nivaloro, 131/A",
    "city": "Marsala",
    "zipCode": "91025",
    "province": "TP",
    "phoneNumber": "+39 0923 966218",
    "id": 9290,
    "contactEmail": "info@lombardoarredi.it",
    "href": "www.lombardoarredi.it",
    "country": {
      "id": 114,
      "name": "Italy"
    }
  },
  {
    "category": {
      "id": 10,
      "name": "Hexagon Dealer"
    },
    "rank": 1,
    "distance": 0,
    "position": {
      "lat": 38.1962701,
      "lng": 15.5537337
    },
    "name": "Franca Mollura Arredamenti",
    "address": "Via XXIV Maggio, 96/161",
    "city": "Messina",
    "zipCode": "98122",
    "province": "ME",
    "phoneNumber": "+39 090 42135",
    "id": 361,
    "contactEmail": "info@francamollura.it",
    "country": {
      "id": 114,
      "name": "Italy"
    }
  },
  {
    "category": {
      "id": 10,
      "name": "Hexagon Dealer"
    },
    "rank": 1,
    "distance": 0,
    "position": {
      "lat": 49.9457698,
      "lng": 11.5775878
    },
    "name": "Schautz Einrichtungen",
    "address": "Luitpoldplatz 10",
    "city": "Bayreuth",
    "zipCode": "95444",
    "phoneNumber": "+49 (0) 921 789110",
    "id": 259,
    "contactEmail": "info@schautz.de",
    "country": {
      "id": 72,
      "name": "Germany"
    }
  },
  {
    "category": {
      "id": 10,
      "name": "Hexagon Dealer"
    },
    "rank": 1,
    "distance": 0,
    "position": {
      "lat": 38.1365592,
      "lng": 15.5230679
    },
    "name": "Mohd Mollura Home Design",
    "address": "SS 114 Orientale Sicula, Km 6, 400,",
    "city": "Tremestieri",
    "zipCode": "98128",
    "province": "ME",
    "phoneNumber": "+39 090 6258945",
    "id": 340,
    "contactEmail": "info@mohd.it",
    "country": {
      "id": 114,
      "name": "Italy"
    }
  },
  {
    "category": {
      "id": 10,
      "name": "Hexagon Dealer"
    },
    "rank": 1,
    "distance": 0,
    "position": {
      "lat": 49.8944174,
      "lng": 10.8854368
    },
    "name": "s o m m e r Einrichtung Gbr",
    "address": "Kapuzinerstraße 34 /  Eingang Holzmarkt",
    "city": "Bamberg",
    "zipCode": "96047",
    "phoneNumber": "+49 (0) 951 51953670",
    "id": 3074,
    "contactEmail": "info@sommer-einrichtung.de",
    "country": {
      "id": 72,
      "name": "Germany"
    }
  },
  {
    "category": {
      "id": 10,
      "name": "Hexagon Dealer"
    },
    "rank": 1,
    "distance": 0,
    "position": {
      "lat": 42.6629138,
      "lng": 21.1655028
    },
    "name": "Archides",
    "address": "Rr. Bekim Berisha nr. 1",
    "city": "Prishtine",
    "phoneNumber": "+377 044 115145",
    "id": 178,
    "contactEmail": "gbaholli@consultant.com",
    "country": {
      "id": 119,
      "name": "Kosovo"
    }
  },
  {
    "category": {
      "id": 10,
      "name": "Hexagon Dealer"
    },
    "rank": 1,
    "distance": 0,
    "position": {
      "lat": 50.0901841,
      "lng": 14.4251142
    },
    "name": "Nobis Studio",
    "address": "Dlouha' 32",
    "city": "Praha 1",
    "zipCode": "110 00",
    "phoneNumber": "+420 222 212859",
    "id": 149,
    "contactEmail": "studio@nobis.cz",
    "href": "www.nobis.cz",
    "country": {
      "id": 176,
      "name": "Czech Republic"
    }
  },
  {
    "category": {
      "id": 10,
      "name": "Hexagon Dealer"
    },
    "rank": 1,
    "distance": 0,
    "position": {
      "lat": 49.5640933,
      "lng": 8.7074531
    },
    "name": "Einrichtungshaus Willi jäGer Gmbh",
    "address": "Hauptstr. 91",
    "city": "Birkenau",
    "zipCode": "69488",
    "phoneNumber": "+49 (0) 6201 3980",
    "id": 212,
    "contactEmail": "mail@jaeger-birkenau.de",
    "country": {
      "id": 72,
      "name": "Germany"
    }
  },
  {
    "category": {
      "id": 10,
      "name": "Hexagon Dealer"
    },
    "rank": 1,
    "distance": 0,
    "position": {
      "lat": 50.0371298,
      "lng": 10.2372407
    },
    "name": "la Cucina Gmbh",
    "address": "Carl-Zeiss-Str. 9",
    "city": "Schweinfurt",
    "zipCode": "97424",
    "phoneNumber": "+49 (0) 9721 207220",
    "id": 233,
    "contactEmail": "info@lacucina-kuechen.de",
    "country": {
      "id": 72,
      "name": "Germany"
    }
  },
  {
    "category": {
      "id": 10,
      "name": "Hexagon Dealer"
    },
    "rank": 1,
    "distance": 0,
    "position": {
      "lat": 50.2598803,
      "lng": 10.9636004
    },
    "name": "Wohndesign Hirsch",
    "address": "Webergasse 22a-24",
    "city": "Coburg",
    "zipCode": "96450",
    "phoneNumber": "+49 (0) 9561 80210",
    "id": 270,
    "contactEmail": "info@hirsch-wohndesign.de",
    "country": {
      "id": 72,
      "name": "Germany"
    }
  },
  {
    "category": {
      "id": 10,
      "name": "Hexagon Dealer"
    },
    "rank": 1,
    "distance": 0,
    "position": {
      "lat": 37.5150053,
      "lng": 15.1008715
    },
    "name": "Arredamento Abitare",
    "address": "Via Pasubio, 2",
    "city": "Catania",
    "zipCode": "95129",
    "province": "CT",
    "phoneNumber": "+39 095 376766",
    "id": 10008,
    "contactEmail": "info@arredamentoabitare.it",
    "href": "www.arredamentoabitare.it",
    "country": {
      "id": 114,
      "name": "Italy"
    }
  },
  {
    "category": {
      "id": 10,
      "name": "Hexagon Dealer"
    },
    "rank": 1,
    "distance": 0,
    "position": {
      "lat": 37.3086,
      "lng": 13.644407
    },
    "name": "Milia Living Home",
    "address": "Viale Aldo Moro, 236",
    "city": "Favara",
    "zipCode": "92026",
    "province": "AG",
    "phoneNumber": "+39 0922 420200",
    "id": 811,
    "contactEmail": "customerservice@miliashop.com",
    "country": {
      "id": 114,
      "name": "Italy"
    }
  },
  {
    "category": {
      "id": 10,
      "name": "Hexagon Dealer"
    },
    "rank": 1,
    "distance": 0,
    "position": {
      "lat": 50.1142025,
      "lng": 8.9133475
    },
    "name": "Meiser Gmbh & co. kg",
    "address": "Ludwigstr. 71",
    "city": "Hanau-Steinheim",
    "zipCode": "63456",
    "phoneNumber": "+49 (0) 6181 67340",
    "id": 239,
    "contactEmail": "k.mieth@meiser-wohnen.de",
    "country": {
      "id": 72,
      "name": "Germany"
    }
  },
  {
    "category": {
      "id": 10,
      "name": "Hexagon Dealer"
    },
    "rank": 1,
    "distance": 0,
    "position": {
      "lat": 50.120992,
      "lng": 8.7716975
    },
    "name": "Heide & Bechthold Gmbh",
    "address": "Schießhüttenstr. 16",
    "city": "Frankfurt",
    "zipCode": "60386",
    "phoneNumber": "+49 (0) 69 9421660",
    "id": 201,
    "contactEmail": "c.heide@heide-bechthold.de",
    "country": {
      "id": 72,
      "name": "Germany"
    }
  },
  {
    "category": {
      "id": 10,
      "name": "Hexagon Dealer"
    },
    "rank": 1,
    "distance": 0,
    "position": {
      "lat": 37.2110026,
      "lng": 14.6414291
    },
    "name": "Interni Attaguile",
    "address": "Viale Raffaele Failla, 31",
    "city": "Grammichele",
    "zipCode": "95042",
    "province": "CT",
    "phoneNumber": "+39 0933 940234",
    "id": 7603,
    "contactEmail": "info@interniattaguille.it",
    "country": {
      "id": 114,
      "name": "Italy"
    }
  },
  {
    "category": {
      "id": 10,
      "name": "Hexagon Dealer"
    },
    "rank": 1,
    "distance": 0,
    "position": {
      "lat": 50.00289,
      "lng": 8.27029
    },
    "name": "Holz Einrichtungshaus kg",
    "address": "Flachsmarktstr. 13-17",
    "city": "Mainz",
    "zipCode": "55116",
    "phoneNumber": "+49 (0) 6131 288550",
    "id": 208,
    "contactEmail": "info@einrichtungshaus-holz.de",
    "country": {
      "id": 72,
      "name": "Germany"
    }
  },
  {
    "category": {
      "id": 10,
      "name": "Hexagon Dealer"
    },
    "rank": 1,
    "distance": 0,
    "position": {
      "lat": 50.2245531,
      "lng": 8.6222108
    },
    "name": "möBel Meiss",
    "address": "Louisenstr. 98",
    "city": "Bad Homburg",
    "zipCode": "61348",
    "phoneNumber": "+49 (0) 6172 67900",
    "id": 211,
    "contactEmail": "info@moebelmeiss.de",
    "country": {
      "id": 72,
      "name": "Germany"
    }
  },
  {
    "category": {
      "id": 10,
      "name": "Hexagon Dealer"
    },
    "rank": 1,
    "distance": 0,
    "position": {
      "lat": 50.8671021,
      "lng": 9.7115141
    },
    "name": "Ellenberger Wohndesign",
    "address": "Breitenstr. 46",
    "city": "Bad Hersfeld",
    "zipCode": "36251",
    "phoneNumber": "+49 (0) 6621 51220",
    "id": 248,
    "contactEmail": "info@wohndesign-ellenberger.de",
    "country": {
      "id": 72,
      "name": "Germany"
    }
  },
  {
    "category": {
      "id": 10,
      "name": "Hexagon Dealer"
    },
    "rank": 1,
    "distance": 0,
    "position": {
      "lat": 49.6108075,
      "lng": 6.1323854
    },
    "name": "Rullem déCoration d'IntéRieurs",
    "address": "6 Rue de la Reine",
    "city": "Luxembourg",
    "zipCode": "2418",
    "phoneNumber": "+35 2 22 49 42",
    "id": 31528,
    "country": {
      "id": 129,
      "name": "Luxembourg"
    }
  },
  {
    "category": {
      "id": 10,
      "name": "Hexagon Dealer"
    },
    "rank": 1,
    "distance": 0,
    "position": {
      "lat": 49.6115185,
      "lng": 6.1281911
    },
    "name": "Mobilier Bonn",
    "address": "7 Rue Philippe II",
    "city": "Luxembourg",
    "zipCode": "2340",
    "phoneNumber": "+352 22 3201",
    "id": 125,
    "contactEmail": "info@bonn.lu",
    "href": "www.bonn.lu",
    "country": {
      "id": 129,
      "name": "Luxembourg"
    }
  },
  {
    "category": {
      "id": 10,
      "name": "Hexagon Dealer"
    },
    "rank": 1,
    "distance": 0,
    "position": {
      "lat": 42.2406514,
      "lng": 3.0325855
    },
    "name": "Euromueble Bru",
    "address": "Ctra. Figueres a Roses, km 33'5",
    "city": "Fortià",
    "zipCode": "17469",
    "phoneNumber": "+34 972 503962",
    "id": 288,
    "contactEmail": "info@euromoblebru.com",
    "country": {
      "id": 202,
      "name": "Spain"
    }
  },
  {
    "category": {
      "id": 10,
      "name": "Hexagon Dealer"
    },
    "rank": 1,
    "distance": 0,
    "position": {
      "lat": 51.3393809,
      "lng": 12.3754247
    },
    "name": "Interieurteam Gmbh",
    "address": "Mädlerpassage Grimmaische Straße 2 – 4",
    "city": "Leipzig",
    "zipCode": "4109",
    "phoneNumber": "+49 (0) 341 3191260",
    "id": 284,
    "contactEmail": "info@interieurteam.de",
    "country": {
      "id": 72,
      "name": "Germany"
    }
  },
  {
    "category": {
      "id": 10,
      "name": "Hexagon Dealer"
    },
    "rank": 1,
    "distance": 0,
    "position": {
      "lat": 51.3398754,
      "lng": 12.3720464
    },
    "name": "Deutsche WerkstäTten",
    "address": "Thomaskirchhof 20",
    "city": "Leipzig",
    "zipCode": "04109",
    "phoneNumber": "+49 (0) 341 26897513",
    "id": 519,
    "contactEmail": "leipzig@dwh.de",
    "country": {
      "id": 72,
      "name": "Germany"
    }
  },
  {
    "category": {
      "id": 10,
      "name": "Hexagon Dealer"
    },
    "rank": 1,
    "distance": 0,
    "position": {
      "lat": 50.6864742,
      "lng": 7.6437029
    },
    "name": "Peter Schmidt Wohnen",
    "address": "Wilhelmstraße 42",
    "city": "Altenkirchen",
    "zipCode": "57610",
    "phoneNumber": "+49 (0) 2681 6202",
    "id": 32877,
    "country": {
      "id": 72,
      "name": "Germany"
    }
  },
  {
    "category": {
      "id": 10,
      "name": "Hexagon Dealer"
    },
    "rank": 1,
    "distance": 0,
    "position": {
      "lat": 50.6439793,
      "lng": 7.2284996
    },
    "name": "Walkembach Einrichtungshaus Gmbh",
    "address": "Hauptstr. 82",
    "city": "Bad Honnef",
    "zipCode": "53604",
    "phoneNumber": "+49 (0) 2224 2471",
    "id": 282,
    "contactEmail": "info@walkembach.de",
    "country": {
      "id": 72,
      "name": "Germany"
    }
  },
  {
    "category": {
      "id": 10,
      "name": "Hexagon Dealer"
    },
    "rank": 1,
    "distance": 0,
    "position": {
      "lat": 42.638891,
      "lng": 23.334623
    },
    "name": "Artgres",
    "address": "Boulevard Simeonovsko Shose 91",
    "city": "Sofia",
    "zipCode": "1734",
    "phoneNumber": "+359 2 8312032",
    "id": 10373,
    "country": {
      "id": 32,
      "name": "Bulgaria"
    }
  },
  {
    "category": {
      "id": 10,
      "name": "Hexagon Dealer"
    },
    "rank": 1,
    "distance": 0,
    "position": {
      "lat": 50.6803,
      "lng": 7.16395
    },
    "name": "vs Interior Design",
    "address": "Koblenzer Strasse 121-123",
    "city": "Bonn Bad-Godesberg",
    "zipCode": "53177",
    "phoneNumber": "+49 (0) 228 93296866",
    "id": 274,
    "contactEmail": "info@vs-interiordesign.de",
    "country": {
      "id": 72,
      "name": "Germany"
    }
  },
  {
    "category": {
      "id": 10,
      "name": "Hexagon Dealer"
    },
    "rank": 1,
    "distance": 0,
    "position": {
      "lat": 42.6251727,
      "lng": 23.3732651
    },
    "name": "Idea International",
    "address": "Ring Tower, Okolovrasten pat str. 251",
    "city": "Sofia",
    "zipCode": "1715",
    "phoneNumber": "+359 898 67 90 60",
    "id": 32328,
    "contactEmail": "office@idea.bg/en",
    "country": {
      "id": 32,
      "name": "Bulgaria"
    }
  },
  {
    "category": {
      "id": 10,
      "name": "Hexagon Dealer"
    },
    "rank": 1,
    "distance": 0,
    "position": {
      "lat": 41.952317,
      "lng": 2.27748500000007
    },
    "name": "Idees",
    "address": "Carretera de Roda-Pol.Industrial Malloles",
    "city": "Vic",
    "zipCode": "08500",
    "phoneNumber": "+34 93 8890307",
    "id": 3539,
    "contactEmail": "web@ideesdisseny.com",
    "href": "www.ideesdisseny.com",
    "country": {
      "id": 202,
      "name": "Spain"
    }
  },
  {
    "category": {
      "id": 10,
      "name": "Hexagon Dealer"
    },
    "rank": 1,
    "distance": 0,
    "position": {
      "lat": 50.964788,
      "lng": 7.1541819
    },
    "name": "Patt Einrichtungen Gmbh",
    "address": "Falltorstr. 2-6",
    "city": "Bergisch Gladbach",
    "zipCode": "51429",
    "phoneNumber": "+49 (0) 2204 95470",
    "id": 300,
    "contactEmail": "info@patt-wohnen.de",
    "country": {
      "id": 72,
      "name": "Germany"
    }
  },
  {
    "category": {
      "id": 8,
      "name": "Hexagon Store"
    },
    "rank": 1,
    "distance": 0,
    "position": {
      "lat": 50.9434528,
      "lng": 6.9419043
    },
    "name": "Hexagon Store",
    "address": "Kaiser-Wilhelm-Ring 30-32",
    "city": "Köln",
    "zipCode": "D 50672",
    "phoneNumber": "+49 (0) 221 12071851",
    "id": 181,
    "contactEmail": "info@hexagon.de",
    "href": "hexagon.de",
    "related": {
      "id": 2611,
      "url": "/it/en/atelier-store/cologne"
    },
    "country": {
      "id": 72,
      "name": "Germany"
    }
  },
  {
    "category": {
      "id": 10,
      "name": "Hexagon Dealer"
    },
    "rank": 1,
    "distance": 0,
    "position": {
      "lat": 51.9056326,
      "lng": 10.4290107
    },
    "name": "Altmann Wohnkonzepte",
    "address": "Wohldenbergstr. 22-23",
    "city": "Goslar",
    "zipCode": "38640",
    "phoneNumber": "+49 (0) 5321 303233",
    "id": 235,
    "contactEmail": "jaltmann@altmann-goslar.de",
    "country": {
      "id": 72,
      "name": "Germany"
    }
  },
  {
    "category": {
      "id": 10,
      "name": "Hexagon Dealer"
    },
    "rank": 1,
    "distance": 0,
    "position": {
      "lat": 41.3938908,
      "lng": 2.15831090000006
    },
    "name": "Gunni & Trentino Barcelona",
    "address": "Roselló, 214",
    "city": "Barcelona",
    "zipCode": "08008",
    "phoneNumber": "+34 932 411494",
    "id": 3552,
    "contactEmail": "barcelona@gth.es",
    "href": "www.gunnitrentino.es",
    "country": {
      "id": 202,
      "name": "Spain"
    }
  },
  {
    "category": {
      "id": 10,
      "name": "Hexagon Dealer"
    },
    "rank": 1,
    "distance": 0,
    "position": {
      "lat": 41.396359,
      "lng": 2.1410567
    },
    "name": "Espai rö",
    "address": "Carrer Ferrán Agulló, 14 local",
    "city": "Barcelona",
    "zipCode": "08021",
    "phoneNumber": "+34 936 672962, +34 669 405728",
    "id": 9833,
    "contactEmail": "info@espairo.com",
    "href": "www.espairo.com",
    "country": {
      "id": 202,
      "name": "Spain"
    }
  },
  {
    "category": {
      "id": 10,
      "name": "Hexagon Dealer"
    },
    "rank": 1,
    "distance": 0,
    "position": {
      "lat": 51.232341,
      "lng": 6.7468423
    },
    "name": "Malzkorn Interiors",
    "address": "Lanker Straße 3-5",
    "city": "Düsseldorf",
    "zipCode": "40545",
    "phoneNumber": "+49 (0) 211 554874",
    "id": 311,
    "contactEmail": "dm.malzkorn@gmx.de",
    "country": {
      "id": 72,
      "name": "Germany"
    }
  },
  {
    "category": {
      "id": 10,
      "name": "Hexagon Dealer"
    },
    "rank": 1,
    "distance": 0,
    "position": {
      "lat": 51.2986891,
      "lng": 6.8477602
    },
    "name": "Form Und Raum",
    "address": "Lintorfer Str. 31",
    "city": "Ratingen",
    "zipCode": "40878",
    "phoneNumber": "+49 (0) 2102 27037",
    "id": 230,
    "contactEmail": "info@form-raum.de",
    "country": {
      "id": 72,
      "name": "Germany"
    }
  },
  {
    "category": {
      "id": 10,
      "name": "Hexagon Dealer"
    },
    "rank": 1,
    "distance": 0,
    "position": {
      "lat": 51.7767854,
      "lng": 8.3241824
    },
    "name": "Christmann Gmbh",
    "address": "Rietberger Str. 9",
    "city": "Langenberg",
    "zipCode": "33449",
    "phoneNumber": "+49 (0) 5248 81060",
    "id": 191,
    "contactEmail": "info@christmann.de",
    "country": {
      "id": 72,
      "name": "Germany"
    }
  },
  {
    "category": {
      "id": 10,
      "name": "Hexagon Dealer"
    },
    "rank": 1,
    "distance": 0,
    "position": {
      "lat": 51.3012553,
      "lng": 6.73636999999997
    },
    "name": "Malzkorn Interiors",
    "address": "Kaiserswerther Markt 43",
    "city": "Düsseldorf",
    "zipCode": "40489",
    "phoneNumber": "+49 (0) 211 43615726",
    "id": 7537,
    "contactEmail": "dm.malzkorn@gmx.de",
    "country": {
      "id": 72,
      "name": "Germany"
    }
  },
  {
    "category": {
      "id": 10,
      "name": "Hexagon Dealer"
    },
    "rank": 1,
    "distance": 0,
    "position": {
      "lat": 51.4542834,
      "lng": 7.0092028
    },
    "name": "Kramm Einrichtungshaus Gmbh",
    "address": "Lindenallee 10-24",
    "city": "Essen",
    "zipCode": "45127",
    "phoneNumber": "+49 (0) 201 1778830",
    "id": 223,
    "contactEmail": "info@kramm-wohnen.de",
    "country": {
      "id": 72,
      "name": "Germany"
    }
  },
  {
    "category": {
      "id": 10,
      "name": "Hexagon Dealer"
    },
    "rank": 1,
    "distance": 0,
    "position": {
      "lat": 51.8968604,
      "lng": 8.3693095
    },
    "name": "Hunke & Bullmann Gmbh",
    "address": "Kolbeplatz 4",
    "city": "Gütersloh",
    "zipCode": "33330",
    "phoneNumber": "+49 (0) 5241 95000",
    "id": 217,
    "contactEmail": "info@hunke-bullmann.de",
    "country": {
      "id": 72,
      "name": "Germany"
    }
  },
  {
    "category": {
      "id": 10,
      "name": "Hexagon Dealer"
    },
    "rank": 1,
    "distance": 0,
    "position": {
      "lat": 51.3467342,
      "lng": 6.5408346
    },
    "name": "Design Collection Franz Knuffmann",
    "address": "Birkschenweg 2",
    "city": "Krefeld",
    "zipCode": "47803",
    "phoneNumber": "+49 (0) 2151 9272600",
    "id": 205,
    "contactEmail": "info@design-collection.com",
    "country": {
      "id": 72,
      "name": "Germany"
    }
  },
  {
    "category": {
      "id": 10,
      "name": "Hexagon Dealer"
    },
    "rank": 1,
    "distance": 0,
    "position": {
      "lat": 52.4843708,
      "lng": 13.2628363
    },
    "name": "Ulrich Stein Einrichtungen Gmbh",
    "address": "Douglasstraße 9, Villa Harteneck",
    "city": "Berlin",
    "zipCode": "14193",
    "phoneNumber": "+49 (0) 30 96596769",
    "id": 320,
    "contactEmail": "as@ulrichstein.com",
    "country": {
      "id": 72,
      "name": "Germany"
    }
  },
  {
    "category": {
      "id": 10,
      "name": "Hexagon Dealer"
    },
    "rank": 1,
    "distance": 0,
    "position": {
      "lat": 52.499495,
      "lng": 13.3185408
    },
    "name": "Thomas Herrendorf Inneneinrichtungen Gmbh & co. kg",
    "address": "Lietzenburger Str. 99",
    "city": "Berlin",
    "zipCode": "10707",
    "phoneNumber": "+49 (0) 30 8838838",
    "id": 222,
    "contactEmail": "mail@thomas-herrendorf.de",
    "country": {
      "id": 72,
      "name": "Germany"
    }
  },
  {
    "category": {
      "id": 10,
      "name": "Hexagon Dealer"
    },
    "rank": 1,
    "distance": 0,
    "position": {
      "lat": 52.5053205,
      "lng": 13.3274954
    },
    "name": "Lipari Design",
    "address": "Kantstr.154a",
    "city": "Berlin",
    "zipCode": "10623",
    "phoneNumber": "+49 (0) 30 31014188",
    "id": 6942,
    "contactEmail": "info@lipari-design.com",
    "country": {
      "id": 72,
      "name": "Germany"
    }
  },
  {
    "category": {
      "id": 10,
      "name": "Hexagon Dealer"
    },
    "rank": 1,
    "distance": 0,
    "position": {
      "lat": 51.2008347,
      "lng": 6.0038385
    },
    "name": "Sijben Wooncenter b.v.",
    "address": "Maasnielderweg 33",
    "city": "Roermond",
    "zipCode": "6042 CX",
    "phoneNumber": "+31 0475 392828",
    "id": 97,
    "contactEmail": "info@sijben.nl",
    "href": "www.sijben.nl",
    "country": {
      "id": 163,
      "name": "Netherlands"
    }
  },
  {
    "category": {
      "id": 10,
      "name": "Hexagon Dealer"
    },
    "rank": 1,
    "distance": 0,
    "position": {
      "lat": 51.2297204,
      "lng": 6.0356067
    },
    "name": "Hawinkels Interieur",
    "address": "Rjksweg Zuid 18",
    "city": "Swalmen",
    "zipCode": "6071 HW",
    "phoneNumber": "+31 0475 50 19 28",
    "id": 113,
    "contactEmail": "info@hawinkelsinterieur.nl",
    "country": {
      "id": 163,
      "name": "Netherlands"
    }
  },
  {
    "category": {
      "id": 10,
      "name": "Hexagon Dealer"
    },
    "rank": 1,
    "distance": 0,
    "position": {
      "lat": 50.8085119,
      "lng": 5.1090568
    },
    "name": "Loncin",
    "address": "Grote Steenweg 85",
    "city": "Zoutleeuw",
    "zipCode": "3440",
    "phoneNumber": "+32 11 78 16 61",
    "id": 31527,
    "href": "www.loncin.be",
    "country": {
      "id": 19,
      "name": "Belgium"
    }
  },
  {
    "category": {
      "id": 10,
      "name": "Hexagon Dealer"
    },
    "rank": 1,
    "distance": 0,
    "position": {
      "lat": 52.3809488,
      "lng": 9.7461551
    },
    "name": "Bock Inneneinrichtungen Gmbh & co. kg",
    "address": "Friesenstr. 15-19",
    "city": "Hannover",
    "zipCode": "30161",
    "phoneNumber": "+49 (0) 511 340200",
    "id": 196,
    "contactEmail": "info@hansgbock.de",
    "country": {
      "id": 72,
      "name": "Germany"
    }
  },
  {
    "category": {
      "id": 8,
      "name": "Hexagon Store"
    },
    "rank": 1,
    "distance": 0,
    "position": {
      "lat": 48.8543967,
      "lng": 2.33446739999999
    },
    "name": "Hexagon Store",
    "address": "Rue de l’Abbaye 10",
    "city": "Paris",
    "zipCode": "75006",
    "phoneNumber": "+33 1 42019825",
    "id": 3586,
    "contactEmail": "info@hexagonparis.fr",
    "related": {
      "id": 2602,
      "url": "/it/en/atelier-store/paris"
    },
    "country": {
      "id": 67,
      "name": "France"
    }
  },
  {
    "category": {
      "id": 10,
      "name": "Hexagon Dealer"
    },
    "rank": 1,
    "distance": 0,
    "position": {
      "lat": 48.8584177,
      "lng": 2.3258106
    },
    "name": "Silvera Universite",
    "address": "47, Rue de L'Université",
    "city": "Paris",
    "zipCode": "75007",
    "phoneNumber": "+33 1 45482106",
    "id": 132,
    "contactEmail": "contact@silvera.fr",
    "country": {
      "id": 67,
      "name": "France"
    }
  },
  {
    "category": {
      "id": 10,
      "name": "Hexagon Dealer"
    },
    "rank": 1,
    "distance": 0,
    "position": {
      "lat": 51.769196,
      "lng": 6.8390029
    },
    "name": "Hetkamp Einrichten Und Mode Gmbh & co. kg",
    "address": "Weseler Str. 8",
    "city": "Raesfeld",
    "zipCode": "46348",
    "phoneNumber": "+49 (0) 2865 60940",
    "id": 260,
    "contactEmail": "info@hetkamp.de",
    "country": {
      "id": 72,
      "name": "Germany"
    }
  },
  {
    "category": {
      "id": 10,
      "name": "Hexagon Dealer"
    },
    "rank": 1,
    "distance": 0,
    "position": {
      "lat": 39.5312664,
      "lng": 2.5089759
    },
    "name": "Stork Interior Design y Cocina s.l.",
    "address": "Calle Islas Baleares 37, Poligono Son Bugadelles, Santa Ponsa",
    "city": "Marbella",
    "zipCode": "07180",
    "phoneNumber": "+34 971 694154",
    "id": 3422,
    "contactEmail": "info@stork-mallorca.de",
    "country": {
      "id": 202,
      "name": "Spain"
    }
  },
  {
    "category": {
      "id": 10,
      "name": "Hexagon Dealer"
    },
    "rank": 1,
    "distance": 0,
    "position": {
      "lat": 51.3516578,
      "lng": 5.46233529999995
    },
    "name": "Studio Bloemex",
    "address": "Leenderweg 13",
    "city": "Valkenswaard",
    "zipCode": "5554 CK",
    "phoneNumber": "+31 40 2043781",
    "id": 927,
    "contactEmail": "info@bloemex.nl",
    "country": {
      "id": 163,
      "name": "Netherlands"
    }
  },
  {
    "category": {
      "id": 10,
      "name": "Hexagon Dealer"
    },
    "rank": 1,
    "distance": 0,
    "position": {
      "lat": 50.8481808,
      "lng": 4.35516280000002
    },
    "name": "Ligne",
    "address": "Galerie du Roi 14",
    "city": "Bruxelles",
    "zipCode": "1000",
    "phoneNumber": "+32 2 5116030",
    "id": 7436,
    "contactEmail": "info@ligne.be",
    "country": {
      "id": 19,
      "name": "Belgium"
    }
  },
  {
    "category": {
      "id": 10,
      "name": "Hexagon Dealer"
    },
    "rank": 1,
    "distance": 0,
    "position": {
      "lat": 51.7901519,
      "lng": 6.13746
    },
    "name": "Rexing Einrichtungshaus",
    "address": "Kavariner Str. 39-41",
    "city": "Kleve",
    "zipCode": "47533",
    "phoneNumber": "+49 (0) 2821 24427",
    "id": 225,
    "contactEmail": "info@rexing.de",
    "country": {
      "id": 72,
      "name": "Germany"
    }
  },
  {
    "category": {
      "id": 10,
      "name": "Hexagon Dealer"
    },
    "rank": 1,
    "distance": 0,
    "position": {
      "lat": 51.2763842,
      "lng": 4.9549068
    },
    "name": "Master Meubel nv",
    "address": "Steenweg op Diest 111",
    "city": "Turnhout",
    "zipCode": "2300",
    "phoneNumber": "+32 14 416113",
    "id": 118,
    "contactEmail": "admin@mastermeubel.be",
    "country": {
      "id": 19,
      "name": "Belgium"
    }
  },
  {
    "category": {
      "id": 10,
      "name": "Hexagon Dealer"
    },
    "rank": 1,
    "distance": 0,
    "position": {
      "lat": 50.9445784,
      "lng": 4.3260333
    },
    "name": "Vanhie",
    "address": "Vilvoordsesteenweg 172",
    "city": "Meise",
    "zipCode": "1860",
    "phoneNumber": "0032 (0)2 272 01 72",
    "id": 32170,
    "contactEmail": "info@vanhie.be",
    "country": {
      "id": 19,
      "name": "Belgium"
    }
  },
  {
    "category": {
      "id": 10,
      "name": "Hexagon Dealer"
    },
    "rank": 1,
    "distance": 0,
    "position": {
      "lat": 51.2414099,
      "lng": 4.5847426
    },
    "name": "Bourbon-Sleeckx",
    "address": "Turnhoutsebaan 217-221",
    "city": "Schilde",
    "zipCode": "2970",
    "phoneNumber": "+32 3 3830669",
    "id": 120,
    "contactEmail": "info@bourbon-sleeckx.com",
    "country": {
      "id": 19,
      "name": "Belgium"
    }
  },
  {
    "category": {
      "id": 10,
      "name": "Hexagon Dealer"
    },
    "rank": 1,
    "distance": 0,
    "position": {
      "lat": 51.2634557,
      "lng": 4.55491770000003
    },
    "name": "de Vos Interieur",
    "address": "Kerkstraat 37",
    "city": "Gravenwezel",
    "zipCode": "2970",
    "phoneNumber": "+32 3 6802020",
    "id": 2356,
    "contactEmail": "info@devos-interieur.be",
    "country": {
      "id": 19,
      "name": "Belgium"
    }
  },
  {
    "category": {
      "id": 9,
      "name": "Hexagon Atelier"
    },
    "rank": 1,
    "distance": 0,
    "position": {
      "lat": 51.2106791,
      "lng": 4.4066706
    },
    "name": "Hexagon Atelier",
    "address": "Britselei 16",
    "city": "Antwerpen",
    "zipCode": "2000",
    "phoneNumber": "+32 3 3361694",
    "id": 108,
    "contactEmail": "atelier@hexagonantwerp.be",
    "related": {
      "id": 2593,
      "url": "/it/en/atelier-store/antwerp"
    },
    "country": {
      "id": 19,
      "name": "Belgium"
    }
  },
  {
    "category": {
      "id": 10,
      "name": "Hexagon Dealer"
    },
    "rank": 1,
    "distance": 0,
    "position": {
      "lat": 51.0036491,
      "lng": 3.8819796
    },
    "name": "Oosterlinck Wooninrichting",
    "address": "Hoenderstraat 45",
    "city": "Wetteren",
    "zipCode": "9230",
    "phoneNumber": "+32 9 3690999",
    "id": 117,
    "contactEmail": "info@wooninrichting-oosterlinck.be",
    "country": {
      "id": 19,
      "name": "Belgium"
    }
  },
  {
    "category": {
      "id": 10,
      "name": "Hexagon Dealer"
    },
    "rank": 1,
    "distance": 0,
    "position": {
      "lat": 51.1654608,
      "lng": 4.1373265
    },
    "name": "Swinnen Store",
    "address": "Onze Lieve Vrouwstraat 24",
    "city": "Sint Niklaas",
    "zipCode": "9100",
    "phoneNumber": "+32 3 7101151",
    "id": 121,
    "contactEmail": "info@swinnenstore.com",
    "href": "www.swinnenstore.be",
    "country": {
      "id": 19,
      "name": "Belgium"
    }
  },
  {
    "category": {
      "id": 10,
      "name": "Hexagon Dealer"
    },
    "rank": 1,
    "distance": 0,
    "position": {
      "lat": 52.1493658,
      "lng": 6.1925809
    },
    "name": "Eijerkamp / Cilo",
    "address": "Gerritsenweg 11 G",
    "city": "Zutphen",
    "zipCode": "7202 BP",
    "phoneNumber": "+31 57 5583656",
    "id": 101,
    "contactEmail": "info@cilo.nl",
    "href": "www.cilo.nl",
    "country": {
      "id": 163,
      "name": "Netherlands"
    }
  },
  {
    "category": {
      "id": 10,
      "name": "Hexagon Dealer"
    },
    "rank": 1,
    "distance": 0,
    "position": {
      "lat": 51.9463071,
      "lng": 5.5172166
    },
    "name": "Doornebal Interieurs",
    "address": "Dr. van Noortstraat 7",
    "city": "Lienden",
    "zipCode": "4033 AA",
    "phoneNumber": "+31 0344 602914",
    "id": 100,
    "contactEmail": "info@doornebal.nl",
    "href": "www.doornebal.nl",
    "country": {
      "id": 163,
      "name": "Netherlands"
    }
  },
  {
    "category": {
      "id": 10,
      "name": "Hexagon Dealer"
    },
    "rank": 1,
    "distance": 0,
    "position": {
      "lat": 53.2509141,
      "lng": 10.4121183
    },
    "name": "Thomas Cordes Einrichtungen",
    "address": "Auf dem Kauf 6",
    "city": "Lüneburg",
    "zipCode": "21335",
    "phoneNumber": "+49 (0) 4131 38483",
    "id": 238,
    "contactEmail": "cordes.einrichtungen@t-online.de",
    "href": "www.thomascordes.de",
    "country": {
      "id": 72,
      "name": "Germany"
    }
  },
  {
    "category": {
      "id": 10,
      "name": "Hexagon Dealer"
    },
    "rank": 1,
    "distance": 0,
    "position": {
      "lat": 53.05655,
      "lng": 9.02816
    },
    "name": "Einrichtungshaus Kehlbeck",
    "address": "Industriestr. 1",
    "city": "Oyten",
    "zipCode": "22876",
    "phoneNumber": "+49 (0) 4207 911515",
    "id": 203,
    "contactEmail": "kehlbeck@kehlbeck.de",
    "country": {
      "id": 72,
      "name": "Germany"
    }
  },
  {
    "category": {
      "id": 10,
      "name": "Hexagon Dealer"
    },
    "rank": 1,
    "distance": 0,
    "position": {
      "lat": 51.2740576,
      "lng": 3.9083073
    },
    "name": "Pot Interieur",
    "address": "Nieuwendijk 89",
    "city": "Axel",
    "zipCode": "4571 LH",
    "phoneNumber": "+31 0115 532526",
    "id": 104,
    "contactEmail": "verkoop@pot.nl",
    "href": "www.pot.nl",
    "country": {
      "id": 163,
      "name": "Netherlands"
    }
  },
  {
    "category": {
      "id": 10,
      "name": "Hexagon Dealer"
    },
    "rank": 1,
    "distance": 0,
    "position": {
      "lat": 44.4267674,
      "lng": 26.1025384
    },
    "name": "Osea Interiors",
    "address": "Str.George Enescu nr.36-42, Sector 1",
    "city": "BUCURESTI",
    "zipCode": "010308",
    "phoneNumber": "+40741333100",
    "id": 33731,
    "contactEmail": "office@oseainteriors.com",
    "href": "www.oseainteriors.com",
    "country": {
      "id": 181,
      "name": "Romania"
    }
  },
  {
    "category": {
      "id": 10,
      "name": "Hexagon Dealer"
    },
    "rank": 1,
    "distance": 0,
    "position": {
      "lat": 50.9339185,
      "lng": 3.1554386
    },
    "name": "'t Casteelken",
    "address": "Sint-Petrus-en-Paulusstraat 2",
    "city": "Roeselare-Rumbeke",
    "zipCode": "8800",
    "phoneNumber": "+32 51 209811",
    "id": 115,
    "contactEmail": "info@casteelken.be",
    "country": {
      "id": 19,
      "name": "Belgium"
    }
  },
  {
    "category": {
      "id": 10,
      "name": "Hexagon Dealer"
    },
    "rank": 1,
    "distance": 0,
    "position": {
      "lat": 52.5153457,
      "lng": 6.0979674
    },
    "name": "Nibourg Interieurs b.v.",
    "address": "Spinhuisplein 2",
    "city": "Zwolle",
    "zipCode": "8011 ZZ",
    "phoneNumber": "+31 038 4223088",
    "id": 96,
    "contactEmail": "info@nibourginterieurs.nl",
    "href": "www.nibourginterieurs.nl",
    "country": {
      "id": 163,
      "name": "Netherlands"
    }
  },
  {
    "category": {
      "id": 10,
      "name": "Hexagon Dealer"
    },
    "rank": 1,
    "distance": 0,
    "position": {
      "lat": 52.7941219,
      "lng": 6.7958961
    },
    "name": "Het Oude Ambacht Stijlvol Wonen",
    "address": "Dorpsstraat 5",
    "city": "Noord Sleen",
    "zipCode": "7846 AS",
    "phoneNumber": "+31 591 361656",
    "id": 112,
    "contactEmail": "info@het-oude-ambacht.nl",
    "href": "www.het-oude-ambacht.nl",
    "country": {
      "id": 163,
      "name": "Netherlands"
    }
  },
  {
    "category": {
      "id": 10,
      "name": "Hexagon Dealer"
    },
    "rank": 1,
    "distance": 0,
    "position": {
      "lat": 51.2086666,
      "lng": 3.2306829
    },
    "name": "Michelangelo Buonarroti Interiors",
    "address": "Predikherenstraat 19",
    "city": "Brugge",
    "zipCode": "8000",
    "phoneNumber": "+32 50 337632",
    "id": 114,
    "contactEmail": "info@michelangelo-interiors.com",
    "country": {
      "id": 19,
      "name": "Belgium"
    }
  },
  {
    "category": {
      "id": 10,
      "name": "Hexagon Dealer"
    },
    "rank": 1,
    "distance": 0,
    "position": {
      "lat": 51.3246775,
      "lng": 3.29669109999998
    },
    "name": "rr Corner",
    "address": "Kustlaan 68",
    "city": "Knokke-Zoute",
    "zipCode": "8300",
    "phoneNumber": "+32 50 622 133",
    "id": 2348,
    "contactEmail": "corner@rrinterieur.be",
    "country": {
      "id": 19,
      "name": "Belgium"
    }
  },
  {
    "category": {
      "id": 10,
      "name": "Hexagon Dealer"
    },
    "rank": 1,
    "distance": 0,
    "position": {
      "lat": 53.5448157,
      "lng": 9.9493238
    },
    "name": "Scala Wohnen Gmbh",
    "address": "Kleiner Burstah 12/NikolaiKontor",
    "city": "Hamburg",
    "zipCode": "20457",
    "phoneNumber": "+49 (0) 40 37519881",
    "id": 3256,
    "contactEmail": "vh@scala-wohnen.de",
    "country": {
      "id": 72,
      "name": "Germany"
    }
  },
  {
    "category": {
      "id": 10,
      "name": "Hexagon Dealer"
    },
    "rank": 1,
    "distance": 0,
    "position": {
      "lat": 53.5448157,
      "lng": 9.9493238
    },
    "name": "Clic Inneneinrichtung Gmbh",
    "address": "Große Elbstraße 68",
    "city": "Hamburg",
    "zipCode": "22767",
    "phoneNumber": "+49 (0) 40 46896890",
    "id": 267,
    "contactEmail": "info@clic.de",
    "country": {
      "id": 72,
      "name": "Germany"
    }
  },
  {
    "category": {
      "id": 10,
      "name": "Hexagon Dealer"
    },
    "rank": 1,
    "distance": 0,
    "position": {
      "lat": 53.5505007,
      "lng": 9.9877951
    },
    "name": "Bornhold - Die Einrichter Gmbh & co. kg",
    "address": "Neuer Wall 70-82",
    "city": "Hamburg",
    "zipCode": "20354",
    "phoneNumber": "+49 (0) 40 471020",
    "id": 183,
    "contactEmail": "info@bornhold-die-einrichter.de",
    "country": {
      "id": 72,
      "name": "Germany"
    }
  },
  {
    "category": {
      "id": 10,
      "name": "Hexagon Dealer"
    },
    "rank": 1,
    "distance": 0,
    "position": {
      "lat": 52.2891382,
      "lng": 4.8420807
    },
    "name": "co Van Der Horst",
    "address": "Binderij 2",
    "city": "Amstelveen",
    "zipCode": "1185 ZJ",
    "phoneNumber": "+31 020 6412505",
    "id": 98,
    "contactEmail": "info@vanderhorst.nl",
    "href": "www.covanderhorst.nl",
    "country": {
      "id": 163,
      "name": "Netherlands"
    }
  },
  {
    "category": {
      "id": 10,
      "name": "Hexagon Dealer"
    },
    "rank": 1,
    "distance": 0,
    "position": {
      "lat": 52.2298517,
      "lng": 21.0181227
    },
    "name": "Space Design",
    "address": "Nowogrodzka 11",
    "city": "Warsaw",
    "zipCode": "00-513",
    "phoneNumber": "+48 723 088883",
    "id": 9761,
    "contactEmail": "hello@space-design.pl",
    "country": {
      "id": 172,
      "name": "Poland"
    }
  },
  {
    "category": {
      "id": 10,
      "name": "Hexagon Dealer"
    },
    "rank": 1,
    "distance": 0,
    "position": {
      "lat": 52.254324,
      "lng": 20.9794298
    },
    "name": "Ideamm",
    "address": "Otworzyliśmy Krucza 24/26",
    "city": "Warszawa",
    "phoneNumber": "+48 505 106905",
    "id": 4196,
    "contactEmail": "z.bartosz@ideamm.pl",
    "country": {
      "id": 172,
      "name": "Poland"
    }
  },
  {
    "category": {
      "id": 10,
      "name": "Hexagon Dealer"
    },
    "rank": 1,
    "distance": 0,
    "position": {
      "lat": 52.254324,
      "lng": 20.9794298
    },
    "name": "Atelier Mesmetric",
    "address": "ul. Burakowska 5/7",
    "city": "Warszawa",
    "zipCode": "01-066",
    "phoneNumber": "+48 797 333998",
    "id": 148,
    "contactEmail": "info@mesmetric.com",
    "country": {
      "id": 172,
      "name": "Poland"
    }
  },
  {
    "category": {
      "id": 10,
      "name": "Hexagon Dealer"
    },
    "rank": 1,
    "distance": 0,
    "position": {
      "lat": 52.0861353,
      "lng": 4.27862389999996
    },
    "name": "Linea Design",
    "address": "Valeriusstraat 94",
    "city": "Den Haag",
    "zipCode": "2517 HT",
    "phoneNumber": "+31 70 3606044",
    "id": 3137,
    "contactEmail": "info@lineadesign.nl",
    "href": "www.lineadesign.nl",
    "country": {
      "id": 163,
      "name": "Netherlands"
    }
  },
  {
    "category": {
      "id": 10,
      "name": "Hexagon Dealer"
    },
    "rank": 1,
    "distance": 0,
    "position": {
      "lat": 38.0141557,
      "lng": 23.784271
    },
    "name": "Deloudis sa",
    "address": "217 Kifisias Ave. & Parnassou 2 Str.",
    "city": "Athens",
    "zipCode": "15124",
    "phoneNumber": "+30 210 8061759",
    "id": 129,
    "contactEmail": "info@deloudis.gr",
    "href": "www.deloudis.gr",
    "country": {
      "id": 79,
      "name": "Greece"
    }
  },
  {
    "category": {
      "id": 10,
      "name": "Hexagon Dealer"
    },
    "rank": 1,
    "distance": 0,
    "position": {
      "lat": 52.6361572,
      "lng": 4.7483228
    },
    "name": "Van Til Interieur",
    "address": "Noorderkade 1038",
    "city": "Alkmaar",
    "zipCode": "1823 CJ",
    "phoneNumber": "+31 72 5112760",
    "id": 107,
    "contactEmail": "info@vantil.nl",
    "href": "www.vantil.nl",
    "country": {
      "id": 163,
      "name": "Netherlands"
    }
  },
  {
    "category": {
      "id": 10,
      "name": "Hexagon Dealer"
    },
    "rank": 1,
    "distance": 0,
    "position": {
      "lat": 51.4869943,
      "lng": -0.148414600000024
    },
    "name": "Tollgård Design Group",
    "address": "Grosvenor Waterside Gatliff Road SW1W",
    "city": "London",
    "zipCode": "8QN",
    "phoneNumber": "+44 0207 5753185",
    "id": 7678,
    "contactEmail": "info@tollgard.com",
    "country": {
      "id": 95,
      "name": "United Kingdom"
    }
  },
  {
    "category": {
      "id": 10,
      "name": "Hexagon Dealer"
    },
    "rank": 1,
    "distance": 0,
    "position": {
      "lat": 51.4758933,
      "lng": -0.183071899999959
    },
    "name": "Tollgård Design Group",
    "address": "Chelsea Harbour Design Centre 1st Floor, Centre Dome",
    "city": "London",
    "zipCode": "SW10 OXE",
    "phoneNumber": "+44 208 0672123",
    "id": 7701,
    "contactEmail": "info@tollgard.com",
    "country": {
      "id": 95,
      "name": "United Kingdom"
    }
  },
  {
    "category": {
      "id": 8,
      "name": "Hexagon Store"
    },
    "rank": 1,
    "distance": 0,
    "position": {
      "lat": 51.4916127,
      "lng": -0.1723721
    },
    "name": "Hexagon Store",
    "address": "Fulham Road 52-58 SW3 6HH London",
    "city": "Londra",
    "phoneNumber": "+44 2 075810022",
    "id": 7858,
    "contactEmail": "info@hexagonuk.com",
    "href": "www.hexagonuk.com",
    "related": {
      "id": 2612,
      "url": "/it/en/atelier-store/london"
    },
    "country": {
      "id": 95,
      "name": "United Kingdom"
    }
  },
  {
    "category": {
      "id": 10,
      "name": "Hexagon Dealer"
    },
    "rank": 1,
    "distance": 0,
    "position": {
      "lat": 51.5157854,
      "lng": -0.151436200000035
    },
    "name": "Global Luxury",
    "address": "87-89 Wigmore Street",
    "city": "Londra",
    "zipCode": "W1U 1DL",
    "phoneNumber": "+44 207 4868445",
    "id": 6132,
    "contactEmail": "info@globalluxurylondon.com",
    "country": {
      "id": 95,
      "name": "United Kingdom"
    }
  },
  {
    "category": {
      "id": 10,
      "name": "Hexagon Dealer"
    },
    "rank": 1,
    "distance": 0,
    "position": {
      "lat": 51.5157854,
      "lng": -0.151436200000035
    },
    "name": "Tollgard Showroom & Studio",
    "address": "Grosvenor Waterside, Gatliff Road",
    "city": "Londra",
    "zipCode": "SW1W 8QN",
    "phoneNumber": "+44 (0)20 7952 6070",
    "id": 32592,
    "contactEmail": "info@tollgard.com",
    "country": {
      "id": 95,
      "name": "United Kingdom"
    }
  },
  {
    "category": {
      "id": 10,
      "name": "Hexagon Dealer"
    },
    "rank": 1,
    "distance": 0,
    "position": {
      "lat": 51.5157854,
      "lng": -0.151436200000035
    },
    "name": "Chaplins",
    "address": "477-507 Uxbridge Road",
    "city": "Hatch End",
    "zipCode": "HA5 4JS",
    "phoneNumber": "+44 (0) 20 8421 1779",
    "id": 32657,
    "contactEmail": "sales@chaplins.co.uk",
    "country": {
      "id": 95,
      "name": "United Kingdom"
    }
  },
  {
    "category": {
      "id": 10,
      "name": "Hexagon Dealer"
    },
    "rank": 1,
    "distance": 0,
    "position": {
      "lat": 55.680143,
      "lng": 12.581238
    },
    "name": "Interstudio Home",
    "address": "Galleri K, 1. sal, Pilestræde 12E",
    "city": "København",
    "zipCode": "DK-1112",
    "phoneNumber": "+45 3526 3100",
    "id": 10362,
    "country": {
      "id": 55,
      "name": "Denmark"
    }
  },
  {
    "category": {
      "id": 10,
      "name": "Hexagon Dealer"
    },
    "rank": 1,
    "distance": 0,
    "position": {
      "lat": 55.6898174,
      "lng": 13.2200412
    },
    "name": "Tornbo möBler",
    "address": "Kalkstensvägen 23",
    "city": "Lund",
    "zipCode": "22478",
    "phoneNumber": "+46 46 184488",
    "id": 160,
    "contactEmail": "info@tornbo.se",
    "href": "www.tornbo.se",
    "country": {
      "id": 208,
      "name": "Sweden"
    }
  },
  {
    "category": {
      "id": 10,
      "name": "Hexagon Dealer"
    },
    "rank": 1,
    "distance": 0,
    "position": {
      "lat": 50.75263,
      "lng": -1.71411999999998
    },
    "name": "Dream Design",
    "address": "Unit 5 Somerford Business Park, Wilverley Road,",
    "city": "Christchurch, Dorset",
    "zipCode": "BH23 3RU",
    "phoneNumber": "+44 1202 879997",
    "id": 331,
    "contactEmail": "enquiries@dreamdesign.co.uk",
    "country": {
      "id": 95,
      "name": "United Kingdom"
    }
  },
  {
    "category": {
      "id": 10,
      "name": "Hexagon Dealer"
    },
    "rank": 1,
    "distance": 0,
    "position": {
      "lat": 37.9877574,
      "lng": -1.1345135
    },
    "name": "Quarta Mobiliario Contemporaneo",
    "address": "Callejón de Burruezo, 1",
    "city": "Murcia",
    "zipCode": "30005",
    "phoneNumber": "+34 968 281837",
    "id": 265,
    "contactEmail": "info@quarta.es",
    "href": "www.quarta.es",
    "country": {
      "id": 202,
      "name": "Spain"
    }
  },
  {
    "category": {
      "id": 10,
      "name": "Hexagon Dealer"
    },
    "rank": 1,
    "distance": 0,
    "position": {
      "lat": 56.090095,
      "lng": 12.7446238
    },
    "name": "Inredningsgalleriet",
    "address": "Kanongatan 155, Väla Norra",
    "city": "Helsingborg",
    "phoneNumber": "+46 42 142505",
    "id": 137,
    "contactEmail": "info@nredningsgalleriet.se",
    "href": "www.inredningsgalleriet.se",
    "country": {
      "id": 208,
      "name": "Sweden"
    }
  },
  {
    "category": {
      "id": 10,
      "name": "Hexagon Dealer"
    },
    "rank": 1,
    "distance": 0,
    "position": {
      "lat": 41.086168,
      "lng": 29.032306
    },
    "name": "Ismetmobilya",
    "address": "Nispetiye Cad. Alkent Yolu – S. Ahmet Acarkan Sok. No: 9 Etiler",
    "city": "Istanbul",
    "zipCode": "80650",
    "phoneNumber": "+90 212 2878727",
    "id": 10549,
    "contactEmail": "ismetmobilya@mynet.com",
    "href": "www.ismetmobilya.com.tr",
    "country": {
      "id": 222,
      "name": "Turkey"
    }
  },
  {
    "category": {
      "id": 10,
      "name": "Hexagon Dealer"
    },
    "rank": 1,
    "distance": 0,
    "position": {
      "lat": 40.9746464,
      "lng": 29.0543045
    },
    "name": "Konak Mobilya",
    "address": "Bagdat Cad. No: 189/A, Ciftehavuzlar",
    "city": "Istanbul",
    "zipCode": "34730",
    "phoneNumber": "+90 216 3555530",
    "id": 9466,
    "contactEmail": "irem@konakmobilya.com",
    "country": {
      "id": 222,
      "name": "Turkey"
    }
  },
  {
    "category": {
      "id": 10,
      "name": "Hexagon Dealer"
    },
    "rank": 1,
    "distance": 0,
    "position": {
      "lat": 40.4483916,
      "lng": -3.68980339999996
    },
    "name": "Gunni & Trentino Madrid",
    "address": "Paseo de La Habana, 3",
    "city": "Madrid",
    "zipCode": "28036",
    "phoneNumber": "+34 911 960127",
    "id": 3567,
    "contactEmail": "madrid@gth.es",
    "href": "www.gunnitrentino.es",
    "country": {
      "id": 202,
      "name": "Spain"
    }
  },
  {
    "category": {
      "id": 10,
      "name": "Hexagon Dealer"
    },
    "rank": 1,
    "distance": 0,
    "position": {
      "lat": 54.896468,
      "lng": 23.913199
    },
    "name": "Studio Casa Interjero Salonas",
    "address": "Daukanto str. 13",
    "city": "Kaunas",
    "zipCode": "LT 44305",
    "phoneNumber": "+370 37792555",
    "id": 139,
    "contactEmail": "info@studiocasa.lt",
    "href": "www.studiocasa.lt",
    "country": {
      "id": 128,
      "name": "Lithuania"
    }
  },
  {
    "category": {
      "id": 10,
      "name": "Hexagon Dealer"
    },
    "rank": 1,
    "distance": 0,
    "position": {
      "lat": 56.9785529,
      "lng": 24.1360372
    },
    "name": "Krassky",
    "address": "Duntes iela 11",
    "city": "Riga",
    "zipCode": "LV-1013",
    "phoneNumber": "+371 67781400",
    "id": 147,
    "contactEmail": "krassky@krassky.lv",
    "country": {
      "id": 123,
      "name": "Latvia"
    }
  },
  {
    "category": {
      "id": 10,
      "name": "Hexagon Dealer"
    },
    "rank": 1,
    "distance": 0,
    "position": {
      "lat": 36.51005,
      "lng": -4.904537
    },
    "name": "Pedro peña",
    "address": "C.C.Tembo. Bloque C. CN 340",
    "city": "Marbella",
    "zipCode": "29602",
    "phoneNumber": "+34 952 824962",
    "id": 3579,
    "contactEmail": "info@pedropena.com",
    "href": "www.pedropena.com",
    "country": {
      "id": 202,
      "name": "Spain"
    }
  },
  {
    "category": {
      "id": 10,
      "name": "Hexagon Dealer"
    },
    "rank": 1,
    "distance": 0,
    "position": {
      "lat": 41.142464,
      "lng": -8.6143653
    },
    "name": "Causaefeito-Decorações Lda",
    "address": "R. de Mouzinho da Silveira 35",
    "city": "Porto",
    "zipCode": "4050-419",
    "phoneNumber": "+351 22 3394650",
    "id": 8278,
    "contactEmail": "carla.pinto@causaefeito.com.pt",
    "country": {
      "id": 173,
      "name": "Portugal"
    }
  },
  {
    "category": {
      "id": 10,
      "name": "Hexagon Dealer"
    },
    "rank": 1,
    "distance": 0,
    "position": {
      "lat": 59.8646266,
      "lng": 10.4886393
    },
    "name": "blåMann møBler as",
    "address": "Fekjan 3",
    "city": "Nesbru",
    "zipCode": "1394",
    "phoneNumber": "+47 66 846828",
    "id": 138,
    "contactEmail": "blamann@blamann.com ",
    "href": "www.blamannmobler.no",
    "country": {
      "id": 159,
      "name": "Norway"
    }
  },
  {
    "category": {
      "id": 10,
      "name": "Hexagon Dealer"
    },
    "rank": 1,
    "distance": 0,
    "position": {
      "lat": 54.5838972,
      "lng": -5.9441196
    },
    "name": "Kris Turnbull",
    "address": "135, Lisburn Road",
    "city": "Belfast",
    "zipCode": "BT9 7AG",
    "phoneNumber": "+44 28 90688600",
    "id": 266,
    "contactEmail": "sales@kristurnbull.com",
    "href": "www.kristurnbull.com",
    "country": {
      "id": 95,
      "name": "United Kingdom"
    }
  },
  {
    "category": {
      "id": 10,
      "name": "Hexagon Dealer"
    },
    "rank": 1,
    "distance": 0,
    "position": {
      "lat": 55.8726012,
      "lng": -4.2827307
    },
    "name": "Designworks",
    "address": "38 Gibson Street",
    "city": "Glasgow",
    "zipCode": "G12 8NX",
    "phoneNumber": "+44 141 3399520",
    "id": 10555,
    "contactEmail": "Joanna@designworks-scotland.co.uk",
    "country": {
      "id": 95,
      "name": "United Kingdom"
    }
  },
  {
    "category": {
      "id": 10,
      "name": "Hexagon Dealer"
    },
    "rank": 1,
    "distance": 0,
    "position": {
      "lat": 60.7965831,
      "lng": 10.6891382
    },
    "name": "Kiil Interiør Design as",
    "address": "Øvre Torvgate 11",
    "city": "Gjøvik",
    "zipCode": "2821",
    "phoneNumber": "+47 61 247380",
    "id": 146,
    "contactEmail": "gjovik@kiil.no",
    "href": "www.kiil.no",
    "country": {
      "id": 159,
      "name": "Norway"
    }
  },
  {
    "category": {
      "id": 10,
      "name": "Hexagon Dealer"
    },
    "rank": 1,
    "distance": 0,
    "position": {
      "lat": 35.1682517,
      "lng": 33.3601434
    },
    "name": "Essere",
    "address": "25 Demosthenis Severis Ave. 1080 P.O. BOX 28339",
    "city": "Nicosia",
    "phoneNumber": "+357 22445353",
    "id": 3754,
    "contactEmail": "info@essere.com.cy",
    "country": {
      "id": 42,
      "name": "Cyprus"
    }
  },
  {
    "category": {
      "id": 10,
      "name": "Hexagon Dealer"
    },
    "rank": 1,
    "distance": 0,
    "position": {
      "lat": 34.6867322,
      "lng": 33.0548525
    },
    "name": "Deloudis sa",
    "address": "Maximos Plaza 217E Leoforos Archiepiskopou Makariou III",
    "city": "Limassol",
    "zipCode": "3105",
    "phoneNumber": "+357 25333420",
    "id": 10390,
    "country": {
      "id": 42,
      "name": "Cyprus"
    }
  },
  {
    "category": {
      "id": 10,
      "name": "Hexagon Dealer"
    },
    "rank": 1,
    "distance": 0,
    "position": {
      "lat": 45.0471235,
      "lng": 38.9723345
    },
    "name": "Home Design",
    "address": "Babushkina str. 246",
    "city": "Krasnodar",
    "zipCode": "350020",
    "phoneNumber": "+7 861 2156557",
    "id": 167,
    "contactEmail": "info@homedesign-co.ru",
    "country": {
      "id": 182,
      "name": "Russian Federation"
    }
  },
  {
    "category": {
      "id": 10,
      "name": "Hexagon Dealer"
    },
    "rank": 1,
    "distance": 0,
    "position": {
      "lat": 33.5901172,
      "lng": -7.6263183
    },
    "name": "Hwm Maroc",
    "address": "17 Bd Moulay Youssef",
    "city": "Casablanca",
    "zipCode": "20000",
    "phoneNumber": "+212 6 61215788",
    "id": 99,
    "contactEmail": "jouaknine@hwm.ma",
    "country": {
      "id": 140,
      "name": "Morocco"
    }
  },
  {
    "category": {
      "id": 10,
      "name": "Hexagon Dealer"
    },
    "rank": 1,
    "distance": 0,
    "position": {
      "lat": 33.591606,
      "lng": -7.645201
    },
    "name": "Klarte International Architecture & Design",
    "address": "3 rue Bab El Mendeb Triangle d'or",
    "city": "Casablanca",
    "phoneNumber": "+212 522 250 857",
    "id": 10301,
    "contactEmail": "Klarte@klarte.ma",
    "country": {
      "id": 140,
      "name": "Morocco"
    }
  },
  {
    "category": {
      "id": 10,
      "name": "Hexagon Dealer"
    },
    "rank": 1,
    "distance": 0,
    "position": {
      "lat": 59.9342118,
      "lng": 30.3141251
    },
    "name": "Rossi Grand",
    "address": "Bolshaya Morskaya st. 26",
    "city": "St. Petersburg",
    "phoneNumber": "+7 812 3157600",
    "id": 179,
    "contactEmail": "rossi.info@yandex.ru",
    "href": "www.rossi-grand.ru",
    "country": {
      "id": 182,
      "name": "Russian Federation"
    }
  },
  {
    "category": {
      "id": 10,
      "name": "Hexagon Dealer"
    },
    "rank": 1,
    "distance": 0,
    "position": {
      "lat": 55.723064,
      "lng": 37.5777849
    },
    "name": "Extra Class Interiors",
    "address": "Komsomolskiy prospect, 35",
    "city": "Moscow",
    "phoneNumber": "+7 495 9541753",
    "id": 3222,
    "contactEmail": "info@extraint.ru",
    "country": {
      "id": 182,
      "name": "Russian Federation"
    }
  },
  {
    "category": {
      "id": 8,
      "name": "Hexagon Store"
    },
    "rank": 1,
    "distance": 0,
    "position": {
      "lat": 55.7141969,
      "lng": 37.589162
    },
    "name": "Hexagon Store",
    "address": "Extra Class Interiors Komsomolskiy prosp., 37",
    "city": "Moscow",
    "zipCode": "119146",
    "phoneNumber": "+7 495 6091180",
    "id": 7981,
    "contactEmail": "info@extraint.ru",
    "related": {
      "id": 2609,
      "url": "/it/en/atelier-store/moscow-2-en"
    },
    "country": {
      "id": 182,
      "name": "Russian Federation"
    }
  },
  {
    "category": {
      "id": 10,
      "name": "Hexagon Dealer"
    },
    "rank": 1,
    "distance": 0,
    "position": {
      "lat": 55.744701,
      "lng": 37.576695
    },
    "name": "Interior Market",
    "address": "Rostovskaya Naberezhnaya, 1",
    "city": "Moscow",
    "zipCode": "119121",
    "phoneNumber": "+7 495 5450551",
    "id": 7607,
    "contactEmail": "info@interior-market.ru",
    "country": {
      "id": 182,
      "name": "Russian Federation"
    }
  },
  {
    "category": {
      "id": 10,
      "name": "Hexagon Dealer"
    },
    "rank": 1,
    "distance": 0,
    "position": {
      "lat": 55.750643,
      "lng": 37.5823669
    },
    "name": "Studio Object",
    "address": "1/2 Novinsky Boulevard",
    "city": "Moscow",
    "phoneNumber": "+7 499 2414846",
    "id": 7630,
    "contactEmail": "novinsky@studio-object.ru",
    "country": {
      "id": 182,
      "name": "Russian Federation"
    }
  },
  {
    "category": {
      "id": 10,
      "name": "Hexagon Dealer"
    },
    "rank": 1,
    "distance": 0,
    "position": {
      "lat": 55.7794471611897,
      "lng": 37.5870762029022
    },
    "name": "Contract Projects Office Solutions Ltd",
    "address": "4th Lesnoy lane, 4",
    "city": "Moscow",
    "zipCode": "125047",
    "phoneNumber": "+7 495 2585599",
    "id": 9165,
    "contactEmail": "info@office-solutions.ru",
    "country": {
      "id": 182,
      "name": "Russian Federation"
    }
  },
  {
    "category": {
      "id": 10,
      "name": "Hexagon Dealer"
    },
    "rank": 1,
    "distance": 0,
    "position": {
      "lat": 55.774425,
      "lng": 37.604552
    },
    "name": "Flat Interiors",
    "address": "Dolgorukovskaya str. 2",
    "city": "Moscow",
    "zipCode": "127006",
    "phoneNumber": "+7 495 7883300",
    "id": 166,
    "contactEmail": "flat@flat-interiors.ru",
    "href": "www.flat-interiors.ru",
    "country": {
      "id": 182,
      "name": "Russian Federation"
    }
  },
  {
    "category": {
      "id": 10,
      "name": "Hexagon Dealer"
    },
    "rank": 1,
    "distance": 0,
    "position": {
      "lat": 30.0444196,
      "lng": 31.2357116
    },
    "name": "Art of Form",
    "address": "KM 38 Cairo/Alex Desert road El Shiekh Zayed,",
    "city": "Cairo",
    "zipCode": "12451",
    "phoneNumber": "+20 2 01110061900",
    "id": 152,
    "contactEmail": "info@artofform.com.eg",
    "href": "www.art-of-form.com",
    "country": {
      "id": 58,
      "name": "Egypt"
    }
  },
  {
    "category": {
      "id": 10,
      "name": "Hexagon Dealer"
    },
    "rank": 1,
    "distance": 0,
    "position": {
      "lat": 33.9096388,
      "lng": 35.5824005
    },
    "name": "Obegi Home",
    "address": "Jal El Dib Highway, Jal El Dib",
    "city": "Beirut",
    "phoneNumber": "+961 4 711623",
    "id": 133,
    "contactEmail": "Beirut@obegihome.com",
    "country": {
      "id": 124,
      "name": "Lebanon"
    }
  },
  {
    "category": {
      "id": 10,
      "name": "Hexagon Dealer"
    },
    "rank": 1,
    "distance": 0,
    "position": {
      "lat": 32.1606516,
      "lng": 34.8068943
    },
    "name": "Tollman’s",
    "address": "3, Hamenofim Str. Herzelia Pituach",
    "city": "Tel Aviv",
    "zipCode": "46725",
    "phoneNumber": "+972 9 9554531",
    "id": 124,
    "contactEmail": "info@tollmans.co.il",
    "href": "www.tollmans.co.il",
    "country": {
      "id": 113,
      "name": "Israel"
    }
  },
  {
    "category": {
      "id": 10,
      "name": "Hexagon Dealer"
    },
    "rank": 1,
    "distance": 0,
    "position": {
      "lat": 31.9453666,
      "lng": 35.9283716
    },
    "name": "Andrea’s Design n Art",
    "address": "Zahran Gate, floor B1 Isma’eel Haqqi Abdoh no. 25 Al Suwaifia",
    "city": "Amman",
    "phoneNumber": "+962 6 5856669",
    "id": 143,
    "contactEmail": "info@andreasdna.com",
    "country": {
      "id": 77,
      "name": "Jordan"
    }
  },
  {
    "category": {
      "id": 10,
      "name": "Hexagon Dealer"
    },
    "rank": 1,
    "distance": 0,
    "position": {
      "lat": 56.3178636,
      "lng": 44.0607548
    },
    "name": "Calipso",
    "address": "Rodionova str. 23/A",
    "city": "Nizhny Novgorod",
    "zipCode": "603093",
    "phoneNumber": "+7 831 2789117",
    "id": 10356,
    "href": "www.calipso.ru",
    "country": {
      "id": 182,
      "name": "Russian Federation"
    }
  },
  {
    "category": {
      "id": 10,
      "name": "Hexagon Dealer"
    },
    "rank": 1,
    "distance": 0,
    "position": {
      "lat": 41.7287867,
      "lng": 44.7278644
    },
    "name": "Saphareli",
    "address": "7a  B.Zhgenti st.",
    "city": "Tbilisi",
    "zipCode": "0183",
    "phoneNumber": "+995 322 040011",
    "id": 8064,
    "contactEmail": "Info@saphareli.ge",
    "country": {
      "id": 70,
      "name": "Georgia"
    }
  },
  {
    "category": {
      "id": 10,
      "name": "Hexagon Dealer"
    },
    "rank": 1,
    "distance": 0,
    "position": {
      "lat": 41.7287496,
      "lng": 44.7661945
    },
    "name": "Motif Ltd.",
    "address": "Budapeshti st. 7",
    "city": "Tbilisi",
    "zipCode": "0160",
    "phoneNumber": "+995 32 389192",
    "id": 7830,
    "contactEmail": "info@motif.ge",
    "href": "www.motif.ge",
    "country": {
      "id": 70,
      "name": "Georgia"
    }
  },
  {
    "category": {
      "id": 10,
      "name": "Hexagon Dealer"
    },
    "rank": 1,
    "distance": 0,
    "position": {
      "lat": 41.7287496,
      "lng": 44.7661945
    },
    "name": "Motif Ltd.",
    "address": "Chavchavadze Ave. 50",
    "city": "Tbilisi",
    "zipCode": "0179",
    "phoneNumber": "+995 32 389192",
    "id": 130,
    "contactEmail": "info@motif.ge",
    "href": "www.motif.ge",
    "country": {
      "id": 70,
      "name": "Georgia"
    }
  },
  {
    "category": {
      "id": 10,
      "name": "Hexagon Dealer"
    },
    "rank": 1,
    "distance": 0,
    "position": {
      "lat": 40.1801676,
      "lng": 44.5035847
    },
    "name": "Euroluce Interiors Llc",
    "address": "1 Leo St",
    "city": "Yerevan",
    "phoneNumber": "+374 10 536 797",
    "id": 136,
    "contactEmail": "info@euroluceinteriors.com",
    "country": {
      "id": 10,
      "name": "Armenia"
    }
  },
  {
    "category": {
      "id": 10,
      "name": "Hexagon Dealer"
    },
    "rank": 1,
    "distance": 0,
    "position": {
      "lat": 55.7764985,
      "lng": 49.1284383
    },
    "name": "Solo Centre",
    "address": "Esperanto str. 16",
    "city": "Kazan",
    "zipCode": "420107",
    "phoneNumber": "+7 843 5705873",
    "id": 10563,
    "contactEmail": "koeln@mi.ru",
    "href": "www.koeln-kzn.ru",
    "country": {
      "id": 182,
      "name": "Russian Federation"
    }
  },
  {
    "category": {
      "id": 10,
      "name": "Hexagon Dealer"
    },
    "rank": 1,
    "distance": 0,
    "position": {
      "lat": 40.4002229,
      "lng": 49.8397288
    },
    "name": "Collezione Italia",
    "address": "Hasan Aliyev 139A,",
    "city": "Baku",
    "zipCode": "AZ 1110",
    "phoneNumber": "+994 12 5681100",
    "id": 131,
    "contactEmail": "office@collezioneitalia.az",
    "country": {
      "id": 14,
      "name": "Azerbaijan"
    }
  },
  {
    "category": {
      "id": 10,
      "name": "Hexagon Dealer"
    },
    "rank": 1,
    "distance": 0,
    "position": {
      "lat": 57.987846,
      "lng": 56.2456295
    },
    "name": "Den i Noch",
    "address": "Komsomolskiy prospect, 86",
    "city": "Perm",
    "zipCode": "614010",
    "phoneNumber": "+7 342 2443223",
    "id": 10548,
    "contactEmail": "giorno_e_notte@mail.ru",
    "country": {
      "id": 182,
      "name": "Russian Federation"
    }
  },
  {
    "category": {
      "id": 10,
      "name": "Hexagon Dealer"
    },
    "rank": 1,
    "distance": 0,
    "position": {
      "lat": 29.3392856,
      "lng": 47.940597
    },
    "name": "Pro Design Group",
    "address": "Al Tilal Mall, Shuwaikh",
    "city": "Kuwait City",
    "phoneNumber": "+965 222 55205",
    "id": 10353,
    "href": "www.pro-design.com",
    "country": {
      "id": 120,
      "name": "Kuwait"
    }
  },
  {
    "category": {
      "id": 10,
      "name": "Hexagon Dealer"
    },
    "rank": 1,
    "distance": 0,
    "position": {
      "lat": 21.2854067,
      "lng": 39.2375507
    },
    "name": "Udg Design Gallery",
    "address": "Prince Sultan Rd، Al-Rawdah dist.",
    "city": "Jeddah",
    "phoneNumber": "+966 12 6980798",
    "id": 126,
    "contactEmail": "sales@udg.com.sa",
    "country": {
      "id": 8,
      "name": "Saudi Arabia"
    }
  },
  {
    "category": {
      "id": 10,
      "name": "Hexagon Dealer"
    },
    "rank": 1,
    "distance": 0,
    "position": {
      "lat": 25.2653605,
      "lng": 51.4981728
    },
    "name": "Design Lounge",
    "address": "Althuraya Souq, Salwa Road",
    "city": "Doha",
    "phoneNumber": "+974 4451 6627",
    "id": 127,
    "contactEmail": "info@designlounge.me",
    "country": {
      "id": 175,
      "name": "Qatar"
    }
  },
  {
    "category": {
      "id": 10,
      "name": "Hexagon Dealer"
    },
    "rank": 1,
    "distance": 0,
    "position": {
      "lat": 6.4360035,
      "lng": 3.4353814
    },
    "name": "Kitchens & Accessories",
    "address": "7B Sir Samuel Manuwa St. Victoria Island",
    "city": "Lagos",
    "zipCode": "106104",
    "phoneNumber": "+234 1 270 7399",
    "id": 33128,
    "country": {
      "id": 157,
      "name": "Nigeria"
    }
  },
  {
    "category": {
      "id": 10,
      "name": "Hexagon Dealer"
    },
    "rank": 1,
    "distance": 0,
    "position": {
      "lat": 25.141303,
      "lng": 55.1853429
    },
    "name": "Obegi Home",
    "address": "Jumeira Beach Road, next to Burj Al Arab",
    "city": "Dubai",
    "zipCode": "127072",
    "phoneNumber": "+971 4 3948161 . +971 4 3948162",
    "id": 135,
    "contactEmail": "dubai@obegihome.com",
    "href": "www.obegihome.com",
    "country": {
      "id": 60,
      "name": "United Arab Emirates"
    }
  },
  {
    "category": {
      "id": 10,
      "name": "Hexagon Dealer"
    },
    "rank": 1,
    "distance": 0,
    "position": {
      "lat": 55.00975,
      "lng": 82.936626
    },
    "name": "Relan Zero",
    "address": "Inskaya Str., 56 3rd floor",
    "city": "Novosibirsk",
    "zipCode": "630102",
    "phoneNumber": "+7 383 2644633",
    "id": 170,
    "contactEmail": "relan@relan-zero.ru",
    "href": "www.relan-zero.ru",
    "country": {
      "id": 182,
      "name": "Russian Federation"
    }
  },
  {
    "category": {
      "id": 8,
      "name": "Hexagon Store"
    },
    "rank": 1,
    "distance": 0,
    "position": {
      "lat": 28.4956835,
      "lng": 77.1664945
    },
    "name": "Hexagon Design Studio",
    "address": "357, Mehrauli-Gurgaon Rd, Sultanpur, New Delhi, Delhi 110030, India",
    "city": "New Delhi",
    "zipCode": "110030",
    "id": 10347,
    "related": {
      "id": 2592,
      "url": "/it/en/atelier-store/new-delhi"
    },
    "country": {
      "id": 93,
      "name": "India"
    }
  },
  {
    "category": {
      "id": 9,
      "name": "Hexagon Atelier"
    },
    "rank": 1,
    "distance": 0,
    "position": {
      "lat": 19.0756146,
      "lng": 72.8388983
    },
    "name": "Hexagon Atelier",
    "address": "Sangolda, Floor No 10 & 11, Plot No 17, St. Francis Road, Santacruz, West",
    "city": "Mumbai",
    "zipCode": "400054",
    "phoneNumber": "+91 0845 1000984",
    "id": 8004,
    "contactEmail": "info@sourcesunlimited.co.in",
    "related": {
      "id": 2597,
      "url": "/it/en/atelier-store/mumbai"
    },
    "country": {
      "id": 93,
      "name": "India"
    }
  },
  {
    "category": {
      "id": 10,
      "name": "Hexagon Dealer"
    },
    "rank": 1,
    "distance": 0,
    "position": {
      "lat": 53.9130121,
      "lng": 102.0389454
    },
    "name": "Perfetto Interiors",
    "address": "Bograda st.,1",
    "city": "Irkutsk",
    "zipCode": "664025",
    "phoneNumber": "+7 395 2201435",
    "id": 158,
    "contactEmail": "rmakarov2007@yandex.ru",
    "href": "www.perfetto-irk.ru",
    "country": {
      "id": 182,
      "name": "Russian Federation"
    }
  },
  {
    "category": {
      "id": 10,
      "name": "Hexagon Dealer"
    },
    "rank": 1,
    "distance": 0,
    "position": {
      "lat": 45.5195791,
      "lng": -73.5854559
    },
    "name": "Latitude Nord",
    "address": "4410, Boul. Saint-Laurent",
    "city": "Montréal",
    "zipCode": "H2W 1Z5",
    "phoneNumber": "+1 514 2870762",
    "id": 177,
    "contactEmail": "info@latnord.com",
    "country": {
      "id": 37,
      "name": "Canada"
    }
  },
  {
    "category": {
      "id": 8,
      "name": "Hexagon Store"
    },
    "rank": 1,
    "distance": 0,
    "position": {
      "lat": 42.3427479,
      "lng": -71.0649102
    },
    "name": "Hexagon Store",
    "address": "450 Harrison Avenue, Suite 19",
    "city": "Boston",
    "zipCode": "MA 02118",
    "phoneNumber": "+1 888 2466451",
    "id": 175,
    "contactEmail": "info@hexagonboston.com",
    "href": "www.hexagonboston.com",
    "related": {
      "id": 2605,
      "url": "/it/en/atelier-store/boston"
    },
    "country": {
      "id": 204,
      "name": "United States"
    }
  },
  {
    "category": {
      "id": 10,
      "name": "Hexagon Dealer"
    },
    "rank": 1,
    "distance": 0,
    "position": {
      "lat": 40.7504872,
      "lng": -73.9806266
    },
    "name": "Hexagon Usa Inc Corporate Office",
    "address": "261 Madison Ave, Unit 1030",
    "city": "New York",
    "phoneNumber": "+1 212 8893261",
    "id": 187,
    "contactEmail": "info@hexagonusa.com",
    "href": "www.hexagonusa.com",
    "country": {
      "id": 204,
      "name": "United States"
    }
  },
  {
    "category": {
      "id": 10,
      "name": "Hexagon Dealer"
    },
    "rank": 1,
    "distance": 0,
    "position": {
      "lat": 39.1546165,
      "lng": -84.4276435
    },
    "name": "Voltage",
    "address": "3209 Madison Road",
    "city": "Cincinnati",
    "zipCode": "OH 45209",
    "phoneNumber": "+1 513 8715483",
    "id": 202,
    "contactEmail": "info@voltagefurniture.com",
    "country": {
      "id": 204,
      "name": "United States"
    }
  },
  {
    "category": {
      "id": 8,
      "name": "Hexagon Store"
    },
    "rank": 1,
    "distance": 0,
    "position": {
      "lat": -26.0894766,
      "lng": 28.0788155
    },
    "name": "il Lusso Pty Ltd",
    "address": "39 Commerce Crescent, Kramerville - Sandton",
    "city": "Johannesburg",
    "zipCode": "2031",
    "phoneNumber": "+27 (0) 10 6002100",
    "id": 7958,
    "contactEmail": "info@illusso.co.za",
    "href": "www.illusso.co.za",
    "related": {
      "id": 2610,
      "url": "/it/en/atelier-store/johannesburg"
    },
    "country": {
      "id": 205,
      "name": "South Africa"
    }
  },
  {
    "category": {
      "id": 8,
      "name": "Hexagon Store"
    },
    "rank": 1,
    "distance": 0,
    "position": {
      "lat": 39.915521,
      "lng": 116.421274
    },
    "name": "Hexagon Store",
    "address": "B1-L17&B2, Peninsula Hotel, No.8 Jinyu Lane, Dongcheng District",
    "city": "Beijing",
    "zipCode": "1000100",
    "phoneNumber": "+86 010 85221508",
    "id": 6727,
    "contactEmail": "marketing@domustiandi.com",
    "related": {
      "id": 2607,
      "url": "/it/en/atelier-store/beijing"
    },
    "country": {
      "id": 41,
      "name": "China"
    }
  },
  {
    "category": {
      "id": 10,
      "name": "Hexagon Dealer"
    },
    "rank": 1,
    "distance": 0,
    "position": {
      "lat": 39.9339228,
      "lng": 116.4668614
    },
    "name": "Beijing Classic Living co.,Ltd",
    "address": "No.10 Nongzhanguan South Road, Chaoyang District",
    "city": "Beijing",
    "zipCode": "100125",
    "phoneNumber": "+86 10 65060099",
    "id": 77,
    "contactEmail": "info@classicliving.com.cn",
    "country": {
      "id": 41,
      "name": "China"
    }
  },
  {
    "category": {
      "id": 10,
      "name": "Hexagon Dealer"
    },
    "rank": 1,
    "distance": 0,
    "position": {
      "lat": 33.786028,
      "lng": -84.409386
    },
    "name": "Switch Modern",
    "address": "670 14th Street",
    "city": "Atlanta",
    "zipCode": "GA  30318",
    "phoneNumber": "+1 404 6050196",
    "id": 176,
    "contactEmail": "info@switchmodern.com",
    "country": {
      "id": 204,
      "name": "United States"
    }
  },
  {
    "category": {
      "id": 10,
      "name": "Hexagon Dealer"
    },
    "rank": 1,
    "distance": 0,
    "position": {
      "lat": 41.5895517,
      "lng": -93.6108912
    },
    "name": "Projects Contemporary Furniture",
    "address": "501 East Locust Street, Iowa",
    "city": "Des Moines",
    "zipCode": "50309",
    "phoneNumber": "+1 515 5571833",
    "id": 180,
    "contactEmail": "sales@projectsfurniture.com",
    "country": {
      "id": 204,
      "name": "United States"
    }
  },
  {
    "category": {
      "id": 10,
      "name": "Hexagon Dealer"
    },
    "rank": 1,
    "distance": 0,
    "position": {
      "lat": 51.0426699,
      "lng": -114.0775168
    },
    "name": "Shaun Ford",
    "address": "715 11th Avenue SW",
    "city": "Calgary, AB",
    "zipCode": "T2R 0E3",
    "phoneNumber": "+1 403 2550333",
    "id": 3082,
    "contactEmail": "info@shaunfordandco.com",
    "country": {
      "id": 37,
      "name": "Canada"
    }
  },
  {
    "category": {
      "id": 10,
      "name": "Hexagon Dealer"
    },
    "rank": 1,
    "distance": 0,
    "position": {
      "lat": 48.4778354288997,
      "lng": 135.050901516008
    },
    "name": "Vivid",
    "address": "Turgeneva str., 96",
    "city": "Khabarovsk",
    "zipCode": "680028",
    "phoneNumber": "+7 914 2148887",
    "id": 8089,
    "contactEmail": "info@vivid.space",
    "country": {
      "id": 182,
      "name": "Russian Federation"
    }
  },
  {
    "category": {
      "id": 10,
      "name": "Hexagon Dealer"
    },
    "rank": 1,
    "distance": 0,
    "position": {
      "lat": 27.3429066,
      "lng": -82.5426916
    },
    "name": "Home Resource",
    "address": "741 Central Avenue",
    "city": "Sarasota",
    "zipCode": "FL 34236",
    "phoneNumber": "+1 941 3666690",
    "id": 190,
    "contactEmail": "info@homeresource.com",
    "country": {
      "id": 204,
      "name": "United States"
    }
  },
  {
    "category": {
      "id": 10,
      "name": "Hexagon Dealer"
    },
    "rank": 1,
    "distance": 0,
    "position": {
      "lat": 36.113501,
      "lng": -95.9757037
    },
    "name": "s r Hughes",
    "address": "3410 S. Peoria #100",
    "city": "Tulsa",
    "zipCode": "OK  74120",
    "phoneNumber": "+1 918 7425515",
    "id": 192,
    "contactEmail": "showroom@srhughes.com",
    "country": {
      "id": 204,
      "name": "United States"
    }
  },
  {
    "category": {
      "id": 10,
      "name": "Hexagon Dealer"
    },
    "rank": 1,
    "distance": 0,
    "position": {
      "lat": 32.013526,
      "lng": 118.73497
    },
    "name": "Nanjing Yonglong",
    "address": "No. 168 Jiangdong zhong Road Jianye District",
    "city": "Nanjing",
    "phoneNumber": "+86 025 68526668",
    "id": 3645,
    "contactEmail": "info@yonglong-furniture.com",
    "country": {
      "id": 41,
      "name": "China"
    }
  },
  {
    "category": {
      "id": 10,
      "name": "Hexagon Dealer"
    },
    "rank": 1,
    "distance": 0,
    "position": {
      "lat": 13.730718,
      "lng": 100.581781
    },
    "name": "Euro Creations Gallery at Thonglor",
    "address": "119 Sukhumvit 55, North Klong Ton, Wattana",
    "city": "Bangkok",
    "zipCode": "10110",
    "phoneNumber": "+66 2 7129555",
    "id": 93,
    "contactEmail": "marketing@eurocreations.co.th",
    "country": {
      "id": 211,
      "name": "Thailand"
    }
  },
  {
    "category": {
      "id": 10,
      "name": "Hexagon Dealer"
    },
    "rank": 1,
    "distance": 0,
    "position": {
      "lat": 43.47918,
      "lng": -110.7606088
    },
    "name": "Wrj Design Showroom",
    "address": "30 South King Street",
    "city": "Jackson",
    "zipCode": "WY 83001-0910",
    "phoneNumber": "+1 307 2004881",
    "id": 1392,
    "contactEmail": "info@wrjdesign.com",
    "country": {
      "id": 204,
      "name": "United States"
    }
  },
  {
    "category": {
      "id": 10,
      "name": "Hexagon Dealer"
    },
    "rank": 1,
    "distance": 0,
    "position": {
      "lat": 49.2836066,
      "lng": -123.1055905
    },
    "name": "Inform Interiors a",
    "address": "50 Water St",
    "city": "Vancouver",
    "zipCode": "BC V6B 1A4",
    "phoneNumber": "+1 604 6823868",
    "id": 169,
    "contactEmail": "info@informinteriors.com",
    "country": {
      "id": 37,
      "name": "Canada"
    }
  },
  {
    "category": {
      "id": 8,
      "name": "Hexagon Store"
    },
    "rank": 1,
    "distance": 0,
    "position": {
      "lat": 37.5092152022448,
      "lng": 127.05997467041
    },
    "name": "Hexagon Store Seoul - Hyundai Livart",
    "address": "118, Hakdong-ro, Gangnam-gu",
    "city": "Seoul",
    "phoneNumber": "+82 02 511 2155",
    "id": 41246,
    "related": {
      "id": 8827,
      "url": "/it/en/atelier-store/seoul"
    },
    "country": {
      "id": 50,
      "name": "Korea, South"
    }
  },
  {
    "category": {
      "id": 10,
      "name": "Hexagon Dealer"
    },
    "rank": 1,
    "distance": 0,
    "position": {
      "lat": 37.5086154,
      "lng": 127.0597808
    },
    "name": "Hyundai Livart",
    "address": "4F, Hyundai department store, 517, Teheran-ro, Gangnam-gu",
    "city": "Seoul",
    "phoneNumber": "+82 02 3467 8446",
    "id": 30668,
    "country": {
      "id": 50,
      "name": "Korea, South"
    }
  },
  {
    "category": {
      "id": 10,
      "name": "Hexagon Dealer"
    },
    "rank": 1,
    "distance": 0,
    "position": {
      "lat": 37.3897865,
      "lng": 127.1098561
    },
    "name": "Hyundai Livart",
    "address": "8F, Hyundai department store, 20, Pangyoyeok-ro 146beon-gil, Bundang-gu, Gyeonggi-do",
    "city": "Seongnam-si",
    "phoneNumber": "+82 031 5170 2844",
    "id": 30670,
    "country": {
      "id": 50,
      "name": "Korea, South"
    }
  },
  {
    "category": {
      "id": 10,
      "name": "Hexagon Dealer"
    },
    "rank": 1,
    "distance": 0,
    "position": {
      "lat": 39.7612762,
      "lng": -104.9830559
    },
    "name": "Solesdi",
    "address": "2800 Walnut Street",
    "city": "Denver",
    "zipCode": "80205",
    "phoneNumber": "+1 303 9996334",
    "id": 199,
    "contactEmail": "infodenver@solesdi.com",
    "country": {
      "id": 204,
      "name": "United States"
    }
  },
  {
    "category": {
      "id": 10,
      "name": "Hexagon Dealer"
    },
    "rank": 1,
    "distance": 0,
    "position": {
      "lat": 32.7952922,
      "lng": -96.8193991
    },
    "name": "Scott + Cooner Dallas",
    "address": "1617 Hi-Line Drive #100",
    "city": "Dallas",
    "zipCode": "TX  75207",
    "phoneNumber": "+1 214 7489838",
    "id": 182,
    "contactEmail": "info@scottcooner.com",
    "country": {
      "id": 204,
      "name": "United States"
    }
  },
  {
    "category": {
      "id": 10,
      "name": "Hexagon Dealer"
    },
    "rank": 1,
    "distance": 0,
    "position": {
      "lat": 30.2149695,
      "lng": 120.1791217
    },
    "name": "Hangzhou For d Home Furniture",
    "address": "9 Feiyunjiang Road",
    "city": "Hangzhou",
    "phoneNumber": "+86 400 885 7770",
    "id": 81,
    "contactEmail": "marketing@fordcasa.com",
    "href": "www.fordcasa.com",
    "country": {
      "id": 41,
      "name": "China"
    }
  },
  {
    "category": {
      "id": 8,
      "name": "Hexagon Store"
    },
    "rank": 1,
    "distance": 0,
    "position": {
      "lat": 31.174993,
      "lng": 121.379467
    },
    "name": "Hexagon Store Shanghai - Minhang District",
    "address": "No. 1265 Wuzhong Road, Bldg. B - 8F Shanghai",
    "city": "SHANGHAI",
    "phoneNumber": "+86 400 820 9220",
    "id": 32509,
    "contactEmail": "luxury@tiamantti.com",
    "related": {
      "id": 7808,
      "url": "/it/en/atelier-store/shanghai-2"
    },
    "country": {
      "id": 41,
      "name": "China"
    }
  },
  {
    "category": {
      "id": 8,
      "name": "Hexagon Store"
    },
    "rank": 1,
    "distance": 0,
    "position": {
      "lat": 31.22811,
      "lng": 121.45648
    },
    "name": "Hexagon Store Shanghai - Jing’an District",
    "address": "No.1369 West Nanjing Road",
    "city": "Shanghai",
    "phoneNumber": "+86 21 6330 0660",
    "id": 32508,
    "contactEmail": "info@arealiving.cn",
    "related": {
      "id": 7804,
      "url": "/it/en/atelier-store/shanghai"
    },
    "country": {
      "id": 41,
      "name": "China"
    }
  },
  {
    "category": {
      "id": 10,
      "name": "Hexagon Dealer"
    },
    "rank": 1,
    "distance": 0,
    "position": {
      "lat": 31.2410182,
      "lng": 121.4806403
    },
    "name": "Area Living",
    "address": "No.600, Building N 5 ,ShanXi N. Road",
    "city": "Shanghai",
    "phoneNumber": "+86 21 60751000",
    "id": 82,
    "contactEmail": "info@arealiving.cn",
    "href": "www.arealiving.cn",
    "country": {
      "id": 41,
      "name": "China"
    }
  },
  {
    "category": {
      "id": 8,
      "name": "Hexagon Store"
    },
    "rank": 1,
    "distance": 0,
    "position": {
      "lat": 22.9517839,
      "lng": 113.086135
    },
    "name": "Hexagon Store",
    "address": "5-6F, Louvre International Furniture Exhibition Center,  Shunde District, Foshan, Guangdong",
    "city": "Foshan City",
    "phoneNumber": "+86 400 1881222",
    "id": 2554,
    "contactEmail": "service@louvre-furniture.com",
    "href": "www.louvre-furniture.com",
    "related": {
      "id": 2589,
      "url": "/it/en/atelier-store/foshan"
    },
    "country": {
      "id": 41,
      "name": "China"
    }
  },
  {
    "category": {
      "id": 8,
      "name": "Hexagon Store"
    },
    "rank": 1,
    "distance": 0,
    "position": {
      "lat": 23.1255329761317,
      "lng": 113.345045757079
    },
    "name": "Hexagon Store",
    "address": "4F, Building C, Louvre Furnishing Art Center,  No. 666, the middle section of Huangpu Dadao. Tianhe District, Guangzhou, Guangdong",
    "city": "Guangzhou",
    "zipCode": "528315",
    "phoneNumber": "+86 400 1881222",
    "id": 9318,
    "contactEmail": "service@louvre-furniture.com",
    "href": "www.louvre-group.cn",
    "related": {
      "id": 2608,
      "url": "/it/en/atelier-store/guangzhou-en"
    },
    "country": {
      "id": 41,
      "name": "China"
    }
  },
  {
    "category": {
      "id": 10,
      "name": "Hexagon Dealer"
    },
    "rank": 1,
    "distance": 0,
    "position": {
      "lat": -15.827034,
      "lng": -47.953467
    },
    "name": "Casual Moveis - Brasilia",
    "address": "SGCV Sul Lote 22 - Loja 143/146 - Shopping Casa Park",
    "city": "Brasilia",
    "zipCode": "DF",
    "phoneNumber": "+55 61 32023922",
    "id": 10360,
    "country": {
      "id": 30,
      "name": "Brazil"
    }
  },
  {
    "category": {
      "id": 8,
      "name": "Hexagon Store"
    },
    "rank": 1,
    "distance": 0,
    "position": {
      "lat": 29.7408785,
      "lng": -95.4193838
    },
    "name": "Casa",
    "address": "2800 Kirby Dr.",
    "city": "Houston",
    "zipCode": "TX 77098",
    "phoneNumber": "+1 713 7148105",
    "id": 185,
    "contactEmail": "info@casa-houston.com",
    "href": "www.casa-houston.com",
    "related": {
      "id": 2601,
      "url": "/it/en/atelier-store/houston"
    },
    "country": {
      "id": 204,
      "name": "United States"
    }
  },
  {
    "category": {
      "id": 8,
      "name": "Hexagon Store"
    },
    "rank": 1,
    "distance": 0,
    "position": {
      "lat": 29.86198,
      "lng": 121.58993
    },
    "name": "Hexagon Store",
    "address": "No. 1751, East Zhongshan Road, Yinzhou District",
    "city": "NINGBO",
    "phoneNumber": "0574-87996565 / +86 13736183000",
    "id": 32507,
    "contactEmail": "527459155@qq.com",
    "related": {
      "id": 7510,
      "url": "/it/en/atelier-store/ningbo"
    },
    "country": {
      "id": 41,
      "name": "China"
    }
  },
  {
    "category": {
      "id": 10,
      "name": "Hexagon Dealer"
    },
    "rank": 1,
    "distance": 0,
    "position": {
      "lat": 22.543096,
      "lng": 114.057865
    },
    "name": "Ritz Design co., Ltd",
    "address": "Unit 024-028, Floor F1, OCT Coastal  O'PLAZA, Nanshan District",
    "city": "Shenzhen",
    "phoneNumber": "+86 755 86717889",
    "id": 83,
    "contactEmail": "info@ritzshanghai.com",
    "href": "www.ritzliving.com",
    "country": {
      "id": 41,
      "name": "China"
    }
  },
  {
    "category": {
      "id": 10,
      "name": "Hexagon Dealer"
    },
    "rank": 1,
    "distance": 0,
    "position": {
      "lat": -19.9410402,
      "lng": -43.9311843
    },
    "name": "Casual Moveis - Belo Horizonte",
    "address": "Rua Andaluzita, 125 - Carmo",
    "city": "Belo Horizonte",
    "zipCode": "MG",
    "phoneNumber": "+55  31 36549285",
    "id": 10358,
    "country": {
      "id": 30,
      "name": "Brazil"
    }
  },
  {
    "category": {
      "id": 10,
      "name": "Hexagon Dealer"
    },
    "rank": 1,
    "distance": 0,
    "position": {
      "lat": 22.2792412,
      "lng": 114.1783749
    },
    "name": "Colourliving",
    "address": "333 Lockhart Road, Wan Chai",
    "phoneNumber": "+852 2295 6263",
    "id": 33899,
    "country": {
      "id": 91,
      "name": "Hong Kong"
    }
  },
  {
    "category": {
      "id": 10,
      "name": "Hexagon Dealer"
    },
    "rank": 1,
    "distance": 0,
    "position": {
      "lat": 30.2699662,
      "lng": -97.7431756
    },
    "name": "Scott + Cooner Austin",
    "address": "115 West 8th Street",
    "city": "Austin",
    "zipCode": "TX  78701",
    "phoneNumber": "+1 512 4800436",
    "id": 173,
    "contactEmail": "wendy@scottcooner.com",
    "country": {
      "id": 204,
      "name": "United States"
    }
  },
  {
    "category": {
      "id": 10,
      "name": "Hexagon Dealer"
    },
    "rank": 1,
    "distance": 0,
    "position": {
      "lat": 24.479833,
      "lng": 118.089425
    },
    "name": "Xiamen Casabella co. Ltd",
    "address": "SCE Building, No.208, Gaoqi Nanwu Road",
    "city": "Xiamen",
    "phoneNumber": "+86 0592 5668399",
    "id": 86,
    "contactEmail": "info@casabellamobili.com",
    "country": {
      "id": 41,
      "name": "China"
    }
  },
  {
    "category": {
      "id": 10,
      "name": "Hexagon Dealer"
    },
    "rank": 1,
    "distance": 0,
    "position": {
      "lat": 4.662094,
      "lng": -74.0515615
    },
    "name": "Casa Hechizoo",
    "address": "Calle 79b # 7-85",
    "city": "Bogotà",
    "phoneNumber": "+571 7470583",
    "id": 32595,
    "contactEmail": "info@hechizoo.com",
    "country": {
      "id": 45,
      "name": "Colombia"
    }
  },
  {
    "category": {
      "id": 10,
      "name": "Hexagon Dealer"
    },
    "rank": 1,
    "distance": 0,
    "position": {
      "lat": 25.0329694,
      "lng": 121.5654177
    },
    "name": "yi&c Furniture & Project Consulting co., Ltd.",
    "address": "23, Lane 252, Sec. 1 - Tun Hua S. Road",
    "city": "Taipei",
    "phoneNumber": "+886 2 27766628",
    "id": 92,
    "contactEmail": "yi8chang@ms65.hinet.net",
    "href": "www.yi8c.com",
    "country": {
      "id": 212,
      "name": "Taiwan"
    }
  },
  {
    "category": {
      "id": 8,
      "name": "Hexagon Store"
    },
    "rank": 1,
    "distance": 0,
    "position": {
      "lat": 10.8230989,
      "lng": 106.6296638
    },
    "name": "Eurasia Concept Corporation",
    "address": "Times Square building, 22-36 Nguyen Hue Boulevard & 57-69F Dong Khoi Street, Ben Nghe Ward, District 1",
    "city": "Ho Chi Minh City",
    "phoneNumber": "+848 3838 9911",
    "id": 10350,
    "related": {
      "id": 2590,
      "url": "/it/en/atelier-store/ho-chi-minh-city"
    },
    "country": {
      "id": 232,
      "name": "Vietnam"
    }
  },
  {
    "category": {
      "id": 10,
      "name": "Hexagon Dealer"
    },
    "rank": 1,
    "distance": 0,
    "position": {
      "lat": -23.6021599,
      "lng": -46.6924588
    },
    "name": "Casual Interiores",
    "address": "Ronaldo Sampaio Ferreira Building Praça João Duran Alonso, 34 – 15° andar – Brooklin",
    "city": "São Paulo",
    "zipCode": "SP",
    "phoneNumber": "+55 11 51031019",
    "id": 10351,
    "country": {
      "id": 30,
      "name": "Brazil"
    }
  },
  {
    "category": {
      "id": 10,
      "name": "Hexagon Dealer"
    },
    "rank": 1,
    "distance": 0,
    "position": {
      "lat": 3.1613896,
      "lng": 101.7201644
    },
    "name": "Space Furniture Kuala Lumpur",
    "address": "106 Jalan Maarof, Bangsar, 59000",
    "city": "Kuala Lumpur",
    "zipCode": "59000",
    "phoneNumber": "+603 2201 6000",
    "id": 91,
    "contactEmail": "info@spacefurniture.com.my",
    "href": "www.spacefurniture.com",
    "country": {
      "id": 134,
      "name": "Malaysia"
    }
  },
  {
    "category": {
      "id": 9,
      "name": "Hexagon Atelier"
    },
    "rank": 1,
    "distance": 0,
    "position": {
      "lat": 1.2998558,
      "lng": 103.850615
    },
    "name": "Space Furniture",
    "address": "77 Bencoolen Street",
    "city": "Singapore",
    "zipCode": "189653",
    "phoneNumber": "+65 64150000",
    "id": 10349,
    "href": "www.spacefurniture.com",
    "related": {
      "id": 2599,
      "url": "/it/en/atelier-store/singapore"
    },
    "country": {
      "id": 197,
      "name": "Singapore"
    }
  },
  {
    "category": {
      "id": 8,
      "name": "Hexagon Store"
    },
    "rank": 1,
    "distance": 0,
    "position": {
      "lat": 34.0762167,
      "lng": -118.3705041
    },
    "name": "Hexagon Store",
    "address": "Robina Benson - Melrose Ave 8315,",
    "city": "Los Angeles - CA",
    "zipCode": "90069",
    "phoneNumber": "+1 323 5910888",
    "id": 10380,
    "related": {
      "id": 2613,
      "url": "/it/en/atelier-store/los-angeles"
    },
    "country": {
      "id": 204,
      "name": "United States"
    }
  },
  {
    "category": {
      "id": 8,
      "name": "Hexagon Store"
    },
    "rank": 1,
    "distance": 0,
    "position": {
      "lat": 19.4192123,
      "lng": -99.2153987
    },
    "name": "Hexagon Store",
    "address": "Monte Everest 635, Lomas De Chapultepec",
    "city": "Mexico City",
    "zipCode": "05100",
    "id": 1241,
    "contactEmail": "info@hexagonmx.com",
    "related": {
      "id": 2600,
      "url": "/it/en/atelier-store/mexico-city"
    },
    "country": {
      "id": 145,
      "name": "Mexico"
    }
  },
  {
    "category": {
      "id": 10,
      "name": "Hexagon Dealer"
    },
    "rank": 1,
    "distance": 0,
    "position": {
      "lat": 19.382277,
      "lng": -99.2676637
    },
    "name": "Benetti Casa",
    "address": "Pabellón Bosques - Loc. 153 Prolongación Bosques de Reforma #1813",
    "city": "Lomas de Vista Hermosa",
    "phoneNumber": "+52 55 21675008",
    "id": 209,
    "contactEmail": "contacto@benetticasa.com",
    "href": "www.benetticasa.com",
    "country": {
      "id": 145,
      "name": "Mexico"
    }
  },
  {
    "category": {
      "id": 10,
      "name": "Hexagon Dealer"
    },
    "rank": 1,
    "distance": 0,
    "position": {
      "lat": 14.553297,
      "lng": 121.0442481
    },
    "name": "Furnitalia",
    "address": "30th St. Corner Rizal Drive - Crescent Park - West Bonifacio, Global City - Taguig City",
    "city": "Manila",
    "phoneNumber": "+63 2 5626401",
    "id": 87,
    "contactEmail": "gmphils@witco.com.ph",
    "country": {
      "id": 65,
      "name": "Philippines"
    }
  },
  {
    "category": {
      "id": 9,
      "name": "Hexagon Atelier"
    },
    "rank": 1,
    "distance": 0,
    "position": {
      "lat": -6.252347,
      "lng": 106.834699
    },
    "name": "Hexagon Atelier pt. Prodotti Indonesia",
    "address": "Jl. Duren Tiga No. 33 Pancoran Selatan",
    "city": "Jakarta",
    "zipCode": "12760",
    "phoneNumber": "+62 21 7991521",
    "id": 90,
    "contactEmail": "info@prodotti-id.com",
    "related": {
      "id": 2595,
      "url": "/it/en/atelier-store/jakarta"
    },
    "country": {
      "id": 94,
      "name": "Indonesia"
    }
  },
  {
    "category": {
      "id": 10,
      "name": "Hexagon Dealer"
    },
    "rank": 1,
    "distance": 0,
    "position": {
      "lat": -34.9429295,
      "lng": -54.931952
    },
    "name": "Cassoni Arte en Muebles",
    "address": "Avda Italia y Pedragosa Sierra P.5",
    "city": "Punta del Este",
    "phoneNumber": "+598 4248 8632",
    "id": 32596,
    "contactEmail": "contact@cassoni.com",
    "country": {
      "id": 228,
      "name": "Uruguay"
    }
  },
  {
    "category": {
      "id": 10,
      "name": "Hexagon Dealer"
    },
    "rank": 1,
    "distance": 0,
    "position": {
      "lat": -33.9176247,
      "lng": 151.1937474
    },
    "name": "Space Furniture Ltd. Pty Ltd.",
    "address": "Sydney Showroom 84, O'Riordan Street",
    "city": "Sydney",
    "zipCode": "NSW 2015",
    "phoneNumber": "+61 2 83397588",
    "id": 109,
    "contactEmail": "info@spacefurniture.com.au",
    "href": "www.spacefurniture.com",
    "country": {
      "id": 12,
      "name": "Australia"
    }
  },
  {
    "category": {
      "id": 10,
      "name": "Hexagon Dealer"
    },
    "rank": 1,
    "distance": 0,
    "position": {
      "lat": -33.9176247,
      "lng": 151.1937474
    },
    "name": "Space Furniture Ltd. Pty Ltd.",
    "address": "Melbourne Showroom 629 Church Street Richmond",
    "city": "Melbourne",
    "zipCode": "VIC 3121",
    "phoneNumber": "+61 3 94263000",
    "id": 116,
    "contactEmail": "info@spacefurniture.com.au",
    "href": "www.spacefurniture.com",
    "country": {
      "id": 12,
      "name": "Australia"
    }
  },
  {
    "category": {
      "id": 10,
      "name": "Hexagon Dealer"
    },
    "rank": 1,
    "distance": 0,
    "position": {
      "lat": -36.8665658,
      "lng": 174.763289
    },
    "name": "Ecc Lighting And Living Ltd",
    "address": "39 Nugent Street, Grafton",
    "city": "Auckland",
    "zipCode": "1023",
    "phoneNumber": "+64 9 3799680",
    "id": 95,
    "contactEmail": "living@ecc.co.nz",
    "href": "www.ecc.co.nz",
    "country": {
      "id": 161,
      "name": "New Zealand"
    }
  }
]
